[{"name":"Knox Bay","code":8195,"lat":0.879419,"lon":-2.192465},{"name":"Harmac","code":7913,"lat":0.857655,"lon":-2.16152},{"name":"Octopus Is","code":8050,"lat":0.877586,"lon":-2.185571},{"name":"Fair Hbr","code":8715,"lat":0.873867,"lon":-2.218992},{"name":"Mitlenatch","code":7895,"lat":0.871792,"lon":-2.181627},{"name":"Alert Bay","code":8280,"lat":0.88291,"lon":-2.215364},{"name":"Ambleside","code":7780,"lat":0.860901,"lon":-2.14946},{"name":"Sooke Basin","code":7024,"lat":0.844289,"lon":-2.158655},{"name":"Maple Bay","code":7315,"lat":0.851995,"lon":-2.157395},{"name":"Saanichton Bay","code":7255,"lat":0.848211,"lon":-2.153536},{"name":"Welcome Bay","code":7990,"lat":0.867429,"lon":-2.173808},{"name":"Okeover Inlet","code":8006,"lat":0.872316,"lon":-2.176426},{"name":"Egmont","code":7842,"lat":0.868284,"lon":-2.162987},{"name":"Village Bay","code":7414,"lat":0.852497,"lon":-2.152412},{"name":"Bedwell Hbr","code":7350,"lat":0.85081,"lon":-2.150722},{"name":"Patricia Bay","code":7277,"lat":0.849166,"lon":-2.154635},{"name":"False Bay","code":7982,"lat":0.863641,"lon":-2.170317},{"name":"Degnen Bay","code":7445,"lat":0.857538,"lon":-2.159263},{"name":"Kwatsi Bay","code":8347,"lat":0.88775,"lon":-2.203454},{"name":"Cape Scott","code":8790,"lat":0.886278,"lon":-2.241526},{"name":"Sunday Hbr","code":8340,"lat":0.885231,"lon":-2.211332},{"name":"Makwazniht Isl","code":8756,"lat":0.882369,"lon":-2.226237},{"name":"Crescent Beach","code":7579,"lat":0.855793,"lon":-2.144719},{"name":"Zeballos","code":8670,"lat":0.872298,"lon":-2.21388},{"name":"Cardale Point","code":7439,"lat":0.855502,"lon":-2.157518},{"name":"Jessie Point","code":8371,"lat":0.889263,"lon":-2.213287},{"name":"Bergh Cove","code":8754,"lat":0.882037,"lon":-2.227459},{"name":"Tsawwassen","code":7590,"lat":0.855211,"lon":-2.149082},{"name":"Lund","code":7885,"lat":0.872374,"lon":-2.177589},{"name":"Shoal Bay","code":8145,"lat":0.880693,"lon":-2.187962},{"name":"Brown Bay","code":8110,"lat":0.875492,"lon":-2.188207},{"name":"Gorge at Aaron Point","code":7122,"lat":0.845514,"lon":-2.153653},{"name":"Prideaux Haven","code":8008,"lat":0.875283,"lon":-2.175902},{"name":"Esquimalt Government Hbr","code":7110,"lat":0.845301,"lon":-2.154409},{"name":"Billy Goat Bay","code":8210,"lat":0.879611,"lon":-2.196759},{"name":"False Creek","code":7710,"lat":0.859941,"lon":-2.148849},{"name":"Waddington Hbr","code":8069,"lat":0.887901,"lon":-2.179445},{"name":"Mermaid Bay","code":8135,"lat":0.879716,"lon":-2.184897},{"name":"Point Atkinson","code":7795,"lat":0.861093,"lon":-2.151171},{"name":"Walker Group","code":8426,"lat":0.888355,"lon":-2.225749},{"name":"Gorge Hbr","code":8037,"lat":0.87427,"lon":-2.18147},{"name":"Port Harvey","code":8250,"lat":0.882578,"lon":-2.203792},{"name":"Chemainus","code":7455,"lat":0.853913,"lon":-2.159224},{"name":"Whaler Bay","code":7532,"lat":0.853175,"lon":-2.152282},{"name":"Fulford Hbr","code":7330,"lat":0.85118,"lon":-2.154626},{"name":"Montagu Point","code":8313,"lat":0.883819,"lon":-2.202829},{"name":"Deep Cove","code":7765,"lat":0.860919,"lon":-2.145847},{"name":"Boom Islet","code":7843,"lat":0.868218,"lon":-2.162529},{"name":"Duncan Bay","code":8087,"lat":0.873991,"lon":-2.186915},{"name":"Oak Bay","code":7130,"lat":0.845153,"lon":-2.152038},{"name":"Warn Bay","code":8626,"lat":0.85938,"lon":-2.194674},{"name":"Raynor Group","code":8394,"lat":0.888128,"lon":-2.220809},{"name":"Ucluelet","code":8595,"lat":0.854286,"lon":-2.191296},{"name":"Comox","code":7965,"lat":0.866905,"lon":-2.180405},{"name":"New Westminster","code":7654,"lat":0.858702,"lon":-2.145184},{"name":"Porlier Pass","code":7437,"lat":0.855409,"lon":-2.156981},{"name":"Gowlland Hbr","code":8082,"lat":0.873799,"lon":-2.185449},{"name":"Lagoon Cove","code":8258,"lat":0.883097,"lon":-2.204682},{"name":"Seymour Narrows","code":8105,"lat":0.875021,"lon":-2.1877},{"name":"Head of Uchucklesit","code":8559,"lat":0.855502,"lon":-2.182534},{"name":"Gorge at Craigflower","code":7124,"lat":0.845628,"lon":-2.154112},{"name":"Port Neville","code":8245,"lat":0.881321,"lon":-2.200633},{"name":"Finnerty Cove","code":7140,"lat":0.846024,"lon":-2.151923},{"name":"Sand Heads","code":7594,"lat":0.857047,"lon":-2.152064},{"name":"Porpoise Bay","code":7852,"lat":0.863624,"lon":-2.160002},{"name":"Little River","code":7993,"lat":0.868144,"lon":-2.180318},{"name":"Tumbo Channel","code":7510,"lat":0.851602,"lon":-2.148654},{"name":"Heriot Bay","code":8035,"lat":0.87441,"lon":-2.185152},{"name":"Powell River","code":7880,"lat":0.870338,"lon":-2.173808},{"name":"Swartz Bay","code":7270,"lat":0.849787,"lon":-2.153925},{"name":"Quathiaski Cove","code":8079,"lat":0.873485,"lon":-2.185466},{"name":"Copp Is","code":8714,"lat":0.873466,"lon":-2.21989},{"name":"Port Renfrew","code":8525,"lat":0.847445,"lon":-2.171556},{"name":"Steveston","code":7607,"lat":0.857384,"lon":-2.15011},{"name":"Squamish Inner","code":7811,"lat":0.867341,"lon":-2.14946},{"name":"Point No Point","code":7010,"lat":0.844654,"lon":-2.1637},{"name":"Ladysmith","code":7460,"lat":0.855193,"lon":-2.160985},{"name":"Irvines Landing","code":7836,"lat":0.866259,"lon":-2.165221},{"name":"Brentwood Bay","code":7280,"lat":0.847846,"lon":-2.154906},{"name":"Storm Bay","code":7847,"lat":0.866765,"lon":-2.161171},{"name":"Northwest Bay","code":7938,"lat":0.8605,"lon":-2.167734},{"name":"Sidney","code":7260,"lat":0.849089,"lon":-2.153612},{"name":"Port Alberni","code":8575,"lat":0.859278,"lon":-2.178415},{"name":"Shushartie Bay","code":8416,"lat":0.887605,"lon":-2.231561},{"name":"Dionisio Point","code":7535,"lat":0.855454,"lon":-2.156771},{"name":"Blind Bay","code":7865,"lat":0.867708,"lon":-2.167332},{"name":"Finlayson Arm","code":7284,"lat":0.846425,"lon":-2.156405},{"name":"Hope Bay","code":7360,"lat":0.85178,"lon":-2.15157},{"name":"William Head","code":7082,"lat":0.84371,"lon":-2.156126},{"name":"Twin Is","code":7892,"lat":0.873188,"lon":-2.18044},{"name":"Orford Bay","code":8065,"lat":0.883101,"lon":-2.179295},{"name":"Sidney Bay","code":8162,"lat":0.881682,"lon":-2.191843},{"name":"Denman Is","code":7955,"lat":0.86454,"lon":-2.178536},{"name":"Cypress Bay","code":8630,"lat":0.859767,"lon":-2.196863},{"name":"Samuel Is","code":7515,"lat":0.852012,"lon":-2.150246},{"name":"Vancouver","code":7735,"lat":0.860208,"lon":-2.148495},{"name":"Ganges","code":7407,"lat":0.852653,"lon":-2.155435},{"name":"Sullivan Bay","code":8364,"lat":0.888128,"lon":-2.213531},{"name":"Miners Bay","code":7528,"lat":0.852593,"lon":-2.151991},{"name":"Victoria Hbr","code":7120,"lat":0.84517,"lon":-2.153225},{"name":"Owen Bay","code":8120,"lat":0.878083,"lon":-2.185561},{"name":"Channel Is","code":8015,"lat":0.878192,"lon":-2.177298},{"name":"Winter Hbr","code":8735,"lat":0.881618,"lon":-2.234528},{"name":"Stopper Is","code":8588,"lat":0.855089,"lon":-2.1877},{"name":"Blubber Bay","code":7875,"lat":0.869174,"lon":-2.174971},{"name":"Gold River","code":8650,"lat":0.867062,"lon":-2.201314},{"name":"Port Hardy","code":8408,"lat":0.885266,"lon":-2.225103},{"name":"Cordero Is","code":8150,"lat":0.880379,"lon":-2.190249},{"name":"Becher Bay","code":7030,"lat":0.843603,"lon":-2.157293},{"name":"Sheringham Point","code":7013,"lat":0.844339,"lon":-2.162832},{"name":"Valdes Is","code":7542,"lat":0.856224,"lon":-2.157576},{"name":"Growler Cove","code":8270,"lat":0.881915,"lon":-2.209936},{"name":"Jennis Bay","code":8384,"lat":0.888599,"lon":-2.217022},{"name":"Glendale Cove","code":8310,"lat":0.884433,"lon":-2.194522},{"name":"Bamfield","code":8545,"lat":0.852349,"lon":-2.184035},{"name":"Pender Hbr","code":7837,"lat":0.866259,"lon":-2.164767},{"name":"Stuart Narrows","code":8379,"lat":0.88832,"lon":-2.214753},{"name":"Darrell Bay","code":7808,"lat":0.866888,"lon":-2.149705},{"name":"Bloedel, Menzies Bay, BC","code":8095,"lat":0.874724,"lon":-2.188311},{"name":"Esquimalt Hbr","code":7109,"lat":0.845445,"lon":-2.154606},{"name":"Chatham Pt","code":8180,"lat":0.878442,"lon":-2.189376},{"name":"Big Bay, Stuart Is","code":8060,"lat":0.879524,"lon":-2.184022},{"name":"Surge Narrows","code":8045,"lat":0.87663,"lon":-2.183616},{"name":"Hunt Islet","code":8736,"lat":0.880937,"lon":-2.234545},{"name":"Mutine Point","code":8556,"lat":0.854199,"lon":-2.181993},{"name":"Effingham Bay","code":8585,"lat":0.853082,"lon":-2.187124},{"name":"Port McNeill","code":8290,"lat":0.883014,"lon":-2.218209},{"name":"Cowichan Bay","code":7310,"lat":0.85068,"lon":-2.157548},{"name":"Ceepeecee","code":8664,"lat":0.870466,"lon":-2.211611},{"name":"Selkirk Water","code":7121,"lat":0.845425,"lon":-2.153378},{"name":"Siwash Bay","code":8311,"lat":0.884658,"lon":-2.194937},{"name":"Clover Point","code":7115,"lat":0.844806,"lon":-2.152839},{"name":"Coal Hbr","code":8765,"lat":0.883119,"lon":-2.226709},{"name":"Tofino","code":8615,"lat":0.857899,"lon":-2.197596},{"name":"Preedy Hbr","code":7471,"lat":0.854866,"lon":-2.158583},{"name":"Halfmoon Bay","code":7830,"lat":0.86413,"lon":-2.162672},{"name":"Indian Arm Head","code":7774,"lat":0.863271,"lon":-2.144767},{"name":"Silva Bay","code":7550,"lat":0.857829,"lon":-2.158972},{"name":"Calamity Point","code":7724,"lat":0.860667,"lon":-2.148983},{"name":"Cedar Is","code":8325,"lat":0.884126,"lon":-2.210896},{"name":"Gorge at Tillicum","code":7123,"lat":0.845573,"lon":-2.153799},{"name":"Hornby Is","code":7953,"lat":0.863872,"lon":-2.176007},{"name":"Port Moody","code":7755,"lat":0.860238,"lon":-2.144416},{"name":"Sulphur Passage","code":8634,"lat":0.862262,"lon":-2.200302},{"name":"Redonda Bay","code":8025,"lat":0.87722,"lon":-2.181574},{"name":"French Creek","code":7940,"lat":0.861313,"lon":-2.170471},{"name":"Franklin River","code":8565,"lat":0.857096,"lon":-2.17838},{"name":"Kelsey Bay","code":8215,"lat":0.879611,"lon":-2.198434},{"name":"Roberts Creek","code":7824,"lat":0.862524,"lon":-2.15796},{"name":"Saltery Bay","code":7868,"lat":0.868883,"lon":-2.167408},{"name":"Woodward's Landing","code":7610,"lat":0.857395,"lon":-2.148071},{"name":"Sandy Cove","code":7786,"lat":0.861154,"lon":-2.150802},{"name":"Skerry Bay","code":7985,"lat":0.863938,"lon":-2.168345},{"name":"Sooke","code":7020,"lat":0.844207,"lon":-2.159426},{"name":"Bunsby Is","code":8720,"lat":0.874716,"lon":-2.225462},{"name":"Roberts Bank","code":7592,"lat":0.855473,"lon":-2.149478},{"name":"Georgina Point","code":7525,"lat":0.852986,"lon":-2.151857},{"name":"Crofton","code":7450,"lat":0.853022,"lon":-2.157986},{"name":"Portage Inlet","code":7125,"lat":0.845736,"lon":-2.154026},{"name":"Yorke Is","code":8233,"lat":0.880414,"lon":-2.198731},{"name":"Campbell River","code":8074,"lat":0.873398,"lon":-2.185973},{"name":"Narvaez Bay","code":7345,"lat":0.851272,"lon":-2.148467},{"name":"Whaletown","code":8038,"lat":0.87455,"lon":-2.182569},{"name":"Kennedy Cove","code":8623,"lat":0.857655,"lon":-2.193373},{"name":"Herbert Inlet","code":8632,"lat":0.86125,"lon":-2.198836},{"name":"Blind Channel","code":8155,"lat":0.87989,"lon":-2.190423},{"name":"Nanoose Bay","code":7930,"lat":0.859575,"lon":-2.167175},{"name":"Riley Cove","code":8637,"lat":0.862036,"lon":-2.203042},{"name":"Saavedra Is","code":8645,"lat":0.866067,"lon":-2.209884},{"name":"Samuel Is","code":7370,"lat":0.852099,"lon":-2.150392},{"name":"Montague Hbr","code":7420,"lat":0.853339,"lon":-2.1536},{"name":"Gibsons","code":7820,"lat":0.862228,"lon":-2.155569},{"name":"Boat Hbr","code":7480,"lat":0.856782,"lon":-2.160686},{"name":"Port Alice","code":8750,"lat":0.879367,"lon":-2.224509},{"name":"Kwokwesta Creek","code":8755,"lat":0.881863,"lon":-2.226499},{"name":"Winchelsea Is","code":7935,"lat":0.860447,"lon":-2.165709},{"name":"Pedder Bay","code":7080,"lat":0.843547,"lon":-2.156356},{"name":"Esperanza","code":8665,"lat":0.870431,"lon":-2.2121},{"name":"White Rock","code":7577,"lat":0.855502,"lon":-2.143264},{"name":"Florence Cove","code":8055,"lat":0.878128,"lon":-2.184541},{"name":"Brooksby Point","code":8558,"lat":0.854897,"lon":-2.1814},{"name":"Kingcome Inlet","code":8348,"lat":0.888525,"lon":-2.202596},{"name":"Kitsilano","code":7707,"lat":0.860041,"lon":-2.149185},{"name":"Kyuquot","code":8710,"lat":0.873118,"lon":-2.223131},{"name":"Nanaimo Hbr","code":7917,"lat":0.858053,"lon":-2.162873}]