[
{"code":"08476","name":"Mereworth Sound.","lat":51.176,"lon":-127.409},
{"code":"07480","name":"Boat Harbour","lat":49.09,"lon":-123.7982},
{"code":"09448","name":"Alice Arm","lat":55.47,"lon":-129.496},
{"code":"08426","name":"Walker Group","lat":50.899,"lon":-127.526},
{"code":"08069","name":"Waddington Hbr.","lat":50.873,"lon":-124.873},
{"code":"07935","name":"Winchelsea Is.","lat":49.3,"lon":-124.086},
{"code":"07315","name":"Maple Bay","lat":48.8157,"lon":-123.60961},
{"code":"07455","name":"Chemainus","lat":48.9256,"lon":-123.7144},
{"code":"09105","name":"Gillen Harbour","lat":52.964,"lon":-129.606},
{"code":"09058","name":"Price Island","lat":52.278,"lon":-128.675},
{"code":"09502","name":"Cape St. James","lat":51.938,"lon":-131.015},
{"code":"09340","name":"Inverness","lat":54.194,"lon":-130.2249},
{"code":"09115","name":"Barnard Hbr.","lat":53.074,"lon":-129.117},
{"code":"07811","name":"Squamish Inner","lat":49.695,"lon":-123.155},
{"code":"09724","name":"Copper Islands","lat":52.36,"lon":-131.181},
{"code":"09511","name":"Houston Stewart Channel W","lat":52.083333,"lon":-131.116667},
{"code":"07780","name":"Ambleside","lat":49.326,"lon":-123.155},
{"code":"08981","name":"Troup Passage","lat":52.242,"lon":-128.039},
{"code":"08347","name":"Kwatsi Bay","lat":50.8643,"lon":-126.2486},
{"code":"07955","name":"Denman Island","lat":49.496,"lon":-124.676},
{"code":"08865","name":"Adams Harbour","lat":51.683333,"lon":-128.1},
{"code":"09635","name":"Dawson Harbour","lat":53.166667,"lon":-132.466667},
{"code":"07532","name":"Whaler Bay","lat":48.883333,"lon":-123.316667},
{"code":"09339","name":"Pembina Terminal","lat":54.236287,"lon":-130.303479},
{"code":"07350","name":"Bedwell Hbr","lat":48.7478,"lon":-123.2273},
{"code":"07535","name":"Dionisio Point","lat":49.0139,"lon":-123.5739},
{"code":"09035","name":"Klemtu","lat":52.594,"lon":-128.521},
{"code":"07982","name":"False Bay","lat":49.483,"lon":-124.35},
{"code":"09710","name":"High Island","lat":52.124,"lon":-131.011},
{"code":"09325","name":"Moffatt Islands","lat":54.446,"lon":-130.726},
{"code":"09964","name":"Langara Point","lat":54.256,"lon":-133.045},
{"code":"08037","name":"Gorge Harbour","lat":50.092,"lon":-124.989},
{"code":"08670","name":"Zeballos","lat":49.979,"lon":-126.846},
{"code":"07024","name":"Sooke Basin","lat":48.3742,"lon":-123.6818},
{"code":"08632","name":"Herbert Inlet","lat":49.346,"lon":-125.984},
{"code":"08008","name":"Prideaux Haven","lat":50.15,"lon":-124.67},
{"code":"07590","name":"Tsawwassen","lat":49.0,"lon":-123.133333},
{"code":"07125","name":"Portage Inlet","lat":48.4571,"lon":-123.4166},
{"code":"09360","name":"Seal Cove","lat":54.3311,"lon":-130.2796},
{"code":"09418","name":"Ranger Islet","lat":54.837,"lon":-130.175},
{"code":"08805","name":"Egg Island","lat":51.249,"lon":-127.836},
{"code":"08145","name":"Shoal Bay","lat":50.46,"lon":-125.361},
{"code":"07110","name":"Esquimalt Government  Hbr.","lat":48.432166,"lon":-123.438533},
{"code":"07020","name":"Sooke","lat":48.3695,"lon":-123.726},
{"code":"08250","name":"Port Harvey","lat":50.568,"lon":-126.268},
{"code":"09140","name":"Kitimat","lat":53.989,"lon":-128.696},
{"code":"08258","name":"Lagoon Cove","lat":50.597716,"lon":-126.31895},
{"code":"07795","name":"Point Atkinson","lat":49.337,"lon":-123.253},
{"code":"08482","name":"Belize Inlet","lat":51.122,"lon":-127.274},
{"code":"08756","name":"Makwazniht Isl.","lat":50.556,"lon":-127.554},
{"code":"08814","name":"Smith Inlet","lat":51.336,"lon":-127.188},
{"code":"08313","name":"Montagu Point","lat":50.63908,"lon":-126.21283},
{"code":"08038","name":"Whaletown","lat":50.108,"lon":-125.052},
{"code":"07277","name":"Patricia Bay","lat":48.6536,"lon":-123.4515},
{"code":"07885","name":"Lund","lat":49.983333,"lon":-124.766667},
{"code":"08340","name":"Sunday Harbour","lat":50.72,"lon":-126.7},
{"code":"07414","name":"Village Bay","lat":48.8445,"lon":-123.3241},
{"code":"09475","name":"Stewart","lat":55.9166,"lon":-130.01},
{"code":"08870","name":"Namu","lat":51.533333,"lon":-127.866667},
{"code":"07654","name":"New Westminster","lat":49.2,"lon":-122.91},
{"code":"09342","name":"Port Edward","lat":54.229,"lon":-130.296},
{"code":"07260","name":"Sidney","lat":48.649216,"lon":-123.3929},
{"code":"07865","name":"Blind Bay","lat":49.716,"lon":-124.179},
{"code":"09625","name":"Trounce Inlet","lat":53.148,"lon":-132.322},
{"code":"07843","name":"Boom Islet","lat":49.745223,"lon":-123.903803},
{"code":"07360","name":"Hope Bay","lat":48.8034,"lon":-123.2759},
{"code":"07330","name":"Fulford Harbour","lat":48.769,"lon":-123.451},
{"code":"09443","name":"Granby Bay","lat":55.416,"lon":-129.818},
{"code":"08065","name":"Orford Bay","lat":50.597969,"lon":-124.864385},
{"code":"07460","name":"Ladysmith","lat":48.99895,"lon":-123.815316},
{"code":"08110","name":"Brown Bay","lat":50.162,"lon":-125.375},
{"code":"09080","name":"Borrowman Bay","lat":52.737,"lon":-129.281},
{"code":"08714","name":"Copp Island","lat":50.045938,"lon":-127.190348},
{"code":"08105","name":"Seymour Narrows","lat":50.135,"lon":-125.346},
{"code":"08860","name":"Addenbroke Isl.","lat":51.605,"lon":-127.826},
{"code":"09063","name":"Milne Island","lat":52.609,"lon":-128.769},
{"code":"07284","name":"Finlayson Arm","lat":48.4966,"lon":-123.5529},
{"code":"08626","name":"Warn Bay","lat":49.238868,"lon":-125.745536},
{"code":"07895","name":"Mitlenatch","lat":49.95,"lon":-124.998},
{"code":"08015","name":"Channel Island","lat":50.316667,"lon":-124.75},
{"code":"07550","name":"Silva Bay","lat":49.15,"lon":-123.7},
{"code":"08906","name":"Gosling Island","lat":51.899,"lon":-128.442},
{"code":"08245","name":"Port Neville","lat":50.496,"lon":-126.087},
{"code":"08280","name":"Alert Bay","lat":50.587,"lon":-126.931},
{"code":"07755","name":"Port Moody","lat":49.288,"lon":-122.866},
{"code":"08630","name":"Cypress Bay","lat":49.261,"lon":-125.871},
{"code":"08715","name":"Fair Harbour","lat":50.068867,"lon":-127.138867},
{"code":"09305","name":"Welcome Harbour","lat":54.016667,"lon":-130.616667},
{"code":"09850","name":"Queen Charlotte City","lat":53.252,"lon":-132.072},
{"code":"07130","name":"Oak Bay","lat":48.4237,"lon":-123.3027},
{"code":"09927","name":"Juskatla","lat":53.628,"lon":-132.319},
{"code":"09053","name":"Butedale","lat":53.16,"lon":-128.694},
{"code":"07938","name":"Northwest Bay","lat":49.303,"lon":-124.202},
{"code":"08595","name":"Ucluelet","lat":48.947,"lon":-125.552},
{"code":"09961","name":"Egeria Bay","lat":54.216667,"lon":-132.966667},
{"code":"08937","name":"Bella Coola","lat":52.374,"lon":-126.796},
{"code":"08394","name":"Raynor Group","lat":50.886,"lon":-127.243},
{"code":"07594","name":"Sand Heads","lat":49.1052,"lon":-123.3042},
{"code":"09005","name":"Port Blackney","lat":52.312,"lon":-128.351},
{"code":"08545","name":"Bamfield","lat":48.836,"lon":-125.136},
{"code":"08790","name":"Cape Scott","lat":50.78,"lon":-128.43},
{"code":"07892","name":"Twin Islands","lat":50.03,"lon":-124.93},
{"code":"07993","name":"Little River","lat":49.741,"lon":-124.923},
{"code":"08438","name":"Fox Islands","lat":51.081,"lon":-127.604},
{"code":"09242","name":"Kitkatla","lat":53.803,"lon":-130.357},
{"code":"08525","name":"Port Renfrew","lat":48.555,"lon":-124.421},
{"code":"09067","name":"Smithers Island","lat":52.758,"lon":-129.073},
{"code":"09195","name":"Lowe Inlet","lat":53.55,"lon":-129.583333},
{"code":"08035","name":"Heriot Bay","lat":50.1,"lon":-125.2},
{"code":"09312","name":"Lawyer Islands","lat":54.105,"lon":-130.334},
{"code":"08575","name":"Port Alberni","lat":49.233,"lon":-124.814},
{"code":"07607","name":"Steveston","lat":49.1245,"lon":-123.1922},
{"code":"08810","name":"Leroy Bay","lat":51.273,"lon":-127.664},
{"code":"07880","name":"Powell River","lat":49.866667,"lon":-124.55},
{"code":"08311","name":"Siwash Bay","lat":50.687166,"lon":-125.76065},
{"code":"08120","name":"Owen Bay","lat":50.31045,"lon":-125.22343},
{"code":"07407","name":"Ganges","lat":48.8534,"lon":-123.4973},
{"code":"08364","name":"Sullivan Bay","lat":50.886,"lon":-126.826},
{"code":"09230","name":"Griffith Harbour","lat":53.599,"lon":-130.543},
{"code":"09667","name":"Nesto Inlet","lat":53.55,"lon":-132.916667},
{"code":"07830","name":"Halfmoon Bay","lat":49.511,"lon":-123.912},
{"code":"07820","name":"Gibsons","lat":49.402,"lon":-123.505},
{"code":"08195","name":"Knox Bay","lat":50.387,"lon":-125.619},
{"code":"07720","name":"Lions Gate","lat":49.31539,"lon":-123.1387},
{"code":"08045","name":"Surge Narrows","lat":50.22719,"lon":-125.112},
{"code":"08025","name":"Redonda Bay","lat":50.261,"lon":-124.995},
{"code":"08556","name":"Mutine Point","lat":48.942,"lon":-125.019},
{"code":"08585","name":"Effingham Bay","lat":48.878,"lon":-125.313},
{"code":"07471","name":"Preedy Harbour","lat":48.9802,"lon":-123.6777},
{"code":"07917","name":"Nanaimo Harbour","lat":49.1628,"lon":-123.9235},
{"code":"08588","name":"Stopper Islands","lat":48.993,"lon":-125.346},
{"code":"07836","name":"Irvines Landing","lat":49.633,"lon":-124.058},
{"code":"08565","name":"Franklin River","lat":49.108,"lon":-124.812},
{"code":"07808","name":"Darrell Bay","lat":49.669,"lon":-123.169},
{"code":"07707","name":"Kitsilano","lat":49.2767,"lon":-123.13925},
{"code":"07030","name":"Becher Bay","lat":48.3349,"lon":-123.6038},
{"code":"07577","name":"White Rock","lat":49.016667,"lon":-122.8},
{"code":"08379","name":"Stuart Narrows","lat":50.897,"lon":-126.896},
{"code":"09570","name":"Hunger Harbour","lat":52.766,"lon":-132.047},
{"code":"08978","name":"Kynumpt Hbr.","lat":52.208,"lon":-128.162},
{"code":"08710","name":"Kyuquot","lat":50.026,"lon":-127.376},
{"code":"07013","name":"Sheringham Point","lat":48.377066,"lon":-123.921166},
{"code":"09090","name":"Surf Inlet","lat":53.033333,"lon":-128.9},
{"code":"07875","name":"Blubber Bay","lat":49.8,"lon":-124.616667},
{"code":"07109","name":"Esquimalt Harbour","lat":48.440433,"lon":-123.449833},
{"code":"09775","name":"Pacofi Bay","lat":52.832,"lon":-131.883},
{"code":"08840","name":"Wadhams","lat":51.51,"lon":-127.524},
{"code":"07965","name":"Comox","lat":49.67,"lon":-124.928},
{"code":"09910","name":"Masset","lat":54.01,"lon":-132.149},
{"code":"09753","name":"Sedgwick Bay","lat":52.636,"lon":-131.583},
{"code":"09790","name":"McCoy Cove","lat":53.041,"lon":-131.664},
{"code":"08736","name":"Hunt Islet","lat":50.474,"lon":-128.03},
{"code":"07724","name":"Calamity Point","lat":49.31257,"lon":-123.127678},
{"code":"08812","name":"Boswell Inlet","lat":51.372,"lon":-127.469},
{"code":"07120","name":"Victoria Harbour","lat":48.424666,"lon":-123.3707},
{"code":"08962","name":"Ocean Falls","lat":52.352,"lon":-127.693},
{"code":"07786","name":"Sandy Cove","lat":49.3405,"lon":-123.2319},
{"code":"07735","name":"Vancouver","lat":49.2863,"lon":-123.0997},
{"code":"09306","name":"Refuge Bay","lat":54.053,"lon":-130.541},
{"code":"07610","name":"Woodward's Landing","lat":49.1251,"lon":-123.0754},
{"code":"08735","name":"Winter Harbour","lat":50.513,"lon":-128.029},
{"code":"08458","name":"Frederick Sd","lat":51.04,"lon":-126.734},
{"code":"07510","name":"Tumbo Channel","lat":48.7932,"lon":-123.1088},
{"code":"08180","name":"Chatham Pt.","lat":50.331,"lon":-125.442},
{"code":"07852","name":"Porpoise Bay","lat":49.482,"lon":-123.759},
{"code":"09227","name":"Bonilla Island","lat":53.493806,"lon":-130.636972},
{"code":"08060","name":"Big Bay, Stuart Island","lat":50.393,"lon":-125.13525},
{"code":"08996","name":"Gerald Point","lat":52.438,"lon":-128.084},
{"code":"07140","name":"Finnerty Cove","lat":48.473583,"lon":-123.296083},
{"code":"09512","name":"Gordon Islands","lat":52.1095,"lon":-131.141},
{"code":"08290","name":"Port McNeill","lat":50.593,"lon":-127.094},
{"code":"08408","name":"Port Hardy","lat":50.722,"lon":-127.489},
{"code":"09341","name":"Porpoise Channel East","lat":54.21515,"lon":-130.28906},
{"code":"09315","name":"Qlawdzeet Anchorage","lat":54.208,"lon":-130.768},
{"code":"09765","name":"Atli Inlet","lat":52.714,"lon":-131.577},
{"code":"08325","name":"Cedar Island","lat":50.656667,"lon":-126.675},
{"code":"08765","name":"Coal Harbour","lat":50.599,"lon":-127.581},
{"code":"08623","name":"Kennedy Cove","lat":49.14,"lon":-125.671},
{"code":"07953","name":"Hornby Island","lat":49.5,"lon":-124.67},
{"code":"09958","name":"Henslung Cove","lat":54.191,"lon":-133.002},
{"code":"08615","name":"Tofino","lat":49.154,"lon":-125.913},
{"code":"08215","name":"Kelsey Bay","lat":50.398,"lon":-125.961},
{"code":"08868","name":"Edward Channel","lat":51.777,"lon":-128.072},
{"code":"08384","name":"Jennis Bay","lat":50.913,"lon":-127.026},
{"code":"08310","name":"Glendale Cove","lat":50.674293,"lon":-125.736856},
{"code":"09713","name":"Rose Harbour","lat":52.1552,"lon":-131.0909},
{"code":"08720","name":"Bunsby Islands","lat":50.11756,"lon":-127.5096},
{"code":"08371","name":"Jessie Point","lat":50.951,"lon":-126.812},
{"code":"09390","name":"Port Simpson","lat":54.56,"lon":-130.431},
{"code":"09056","name":"Higgins Passage","lat":52.483,"lon":-128.762},
{"code":"08750","name":"Port Alice","lat":50.384,"lon":-127.455},
{"code":"09333","name":"Brundige Inlet","lat":54.613,"lon":-130.854},
{"code":"07525","name":"Georgina Point","lat":48.8725,"lon":-123.2923},
{"code":"08488","name":"Alison Sound","lat":51.161,"lon":-126.982},
{"code":"09708","name":"Heater Harbour","lat":52.116667,"lon":-131.033333},
{"code":"07310","name":"Cowichan Bay","lat":48.7404,"lon":-123.6184},
{"code":"08637","name":"Riley Cove","lat":49.391,"lon":-126.225},
{"code":"08634","name":"Sulphur Passage","lat":49.404,"lon":-126.068},
{"code":"09150","name":"Kemano Bay","lat":53.478,"lon":-128.124},
{"code":"07930","name":"Nanoose Bay","lat":49.25,"lon":-124.17},
{"code":"07420","name":"Montague Hbr","lat":48.8927,"lon":-123.3922},
{"code":"08074","name":"Campbell River","lat":50.042,"lon":-125.247},
{"code":"07345","name":"Narvaez Bay","lat":48.7743,"lon":-123.0981},
{"code":"08917","name":"Stryker Island","lat":52.093,"lon":-128.348},
{"code":"08558","name":"Brooksby Point","lat":48.982,"lon":-124.985},
{"code":"07592","name":"Roberts Bank","lat":49.015,"lon":-123.156},
{"code":"07868","name":"Saltery Bay","lat":49.783333,"lon":-124.183333},
{"code":"07990","name":"Welcome Bay","lat":49.7,"lon":-124.55},
{"code":"09354","name":"Prince Rupert","lat":54.317,"lon":-130.324},
{"code":"09082","name":"Beauchemin Channel","lat":52.77758,"lon":-129.303048},
{"code":"09020","name":"Griffin Passage","lat":52.77,"lon":-128.346},
{"code":"08650","name":"Gold River","lat":49.679,"lon":-126.126},
{"code":"09940","name":"Wiah Point","lat":54.112,"lon":-132.31},
{"code":"09422","name":"Kincolith","lat":54.999,"lon":-129.978},
{"code":"09920","name":"Port Clements","lat":53.689,"lon":-132.187},
{"code":"09346","name":"Prince Rupert RoRo","lat":54.234885,"lon":-130.335097},
{"code":"09130","name":"Hartley Bay","lat":53.424213,"lon":-129.251877},
{"code":"08912","name":"Spider Island","lat":51.845,"lon":-128.231},
{"code":"07450","name":"Crofton","lat":48.874583,"lon":-123.643516},
{"code":"07080","name":"Pedder Bay","lat":48.3317,"lon":-123.5501},
{"code":"08958","name":"Forit Bay","lat":52.174,"lon":-127.91},
{"code":"08348","name":"Kingcome Inlet","lat":50.908717,"lon":-126.19945},
{"code":"08976","name":"Bella Bella","lat":52.163,"lon":-128.143},
{"code":"09060","name":"Meyers Narrows","lat":52.604,"lon":-128.617},
{"code":"08665","name":"Esperanza","lat":49.872,"lon":-126.744},
{"code":"09650","name":"Shields Bay","lat":53.313,"lon":-132.417},
{"code":"09077","name":"McKenney Isl.","lat":52.65,"lon":-129.472},
{"code":"09165","name":"Block Islands","lat":53.157,"lon":-129.741},
{"code":"08464","name":"Nugent Sound","lat":51.083333,"lon":-127.25},
{"code":"08150","name":"Cordero Is.","lat":50.442,"lon":-125.492},
{"code":"09348","name":"Fairview Terminal","lat":54.282836,"lon":-130.360667},
{"code":"09250","name":"Seabreeze Point","lat":53.987,"lon":-130.182},
{"code":"08645","name":"Saavedra Islands","lat":49.622,"lon":-126.617}]
