[
  {
    "name": "Knox Bay",
    "code": "08195",
    "lat": 0.879419,
    "lon": -2.192465
  },
  {
    "name": "Klemtu",
    "code": "09035",
    "lat": 0.917938,
    "lon": -2.243115
  },
  {
    "name": "Adams Hbr",
    "code": "08865",
    "lat": 0.902044,
    "lon": -2.235767
  },
  {
    "name": "Harmac",
    "code": "07913",
    "lat": 0.857655,
    "lon": -2.16152
  },
  {
    "name": "Barnard Hbr",
    "code": "09115",
    "lat": 0.926316,
    "lon": -2.253517
  },
  {
    "name": "Price Is",
    "code": "09058",
    "lat": 0.912423,
    "lon": -2.245802
  },
  {
    "name": "Octopus Is",
    "code": "08050",
    "lat": 0.877586,
    "lon": -2.185571
  },
  {
    "name": "Fair Hbr",
    "code": "08715",
    "lat": 0.873867,
    "lon": -2.218992
  },
  {
    "name": "Egeria Bay",
    "code": "09961",
    "lat": 0.946259,
    "lon": -2.320706
  },
  {
    "name": "Troup Passage",
    "code": "08981",
    "lat": 0.911795,
    "lon": -2.234702
  },
  {
    "name": "Aero Trading",
    "code": "09338",
    "lat": 0.946195,
    "lon": -2.273961
  },
  {
    "name": "Mitlenatch",
    "code": "07895",
    "lat": 0.871792,
    "lon": -2.181627
  },
  {
    "name": "Alert Bay",
    "code": "08280",
    "lat": 0.88291,
    "lon": -2.215364
  },
  {
    "name": "Ambleside",
    "code": "07780",
    "lat": 0.860901,
    "lon": -2.14946
  },
  {
    "name": "Prince Rupert RoRo",
    "code": "09346",
    "lat": 0.946577,
    "lon": -2.274777
  },
  {
    "name": "Sooke Basin",
    "code": "07024",
    "lat": 0.844289,
    "lon": -2.158655
  },
  {
    "name": "Forit Bay",
    "code": "08958",
    "lat": 0.910608,
    "lon": -2.232451
  },
  {
    "name": "Maple Bay",
    "code": "07315",
    "lat": 0.851995,
    "lon": -2.157395
  },
  {
    "name": "Saanichton Bay",
    "code": "07255",
    "lat": 0.848211,
    "lon": -2.153536
  },
  {
    "name": "Welcome Bay",
    "code": "07990",
    "lat": 0.867429,
    "lon": -2.173808
  },
  {
    "name": "Dawson Hbr",
    "code": "09635",
    "lat": 0.927933,
    "lon": -2.311979
  },
  {
    "name": "Moffatt Is",
    "code": "09325",
    "lat": 0.950262,
    "lon": -2.281599
  },
  {
    "name": "Okeover Inlet",
    "code": "08006",
    "lat": 0.872316,
    "lon": -2.176426
  },
  {
    "name": "Meyers Narrows",
    "code": "09060",
    "lat": 0.918113,
    "lon": -2.24479
  },
  {
    "name": "Egmont",
    "code": "07842",
    "lat": 0.868284,
    "lon": -2.162987
  },
  {
    "name": "Village Bay",
    "code": "07414",
    "lat": 0.852497,
    "lon": -2.152412
  },
  {
    "name": "Larsen Is",
    "code": "09232",
    "lat": 0.935828,
    "lon": -2.278946
  },
  {
    "name": "Bedwell Hbr",
    "code": "07350",
    "lat": 0.85081,
    "lon": -2.150722
  },
  {
    "name": "Patricia Bay",
    "code": "07277",
    "lat": 0.849166,
    "lon": -2.154635
  },
  {
    "name": "False Bay",
    "code": "07982",
    "lat": 0.863641,
    "lon": -2.170317
  },
  {
    "name": "Degnen Bay",
    "code": "07445",
    "lat": 0.857538,
    "lon": -2.159263
  },
  {
    "name": "Kwatsi Bay",
    "code": "08347",
    "lat": 0.88775,
    "lon": -2.203454
  },
  {
    "name": "Fairview Terminal",
    "code": "09348",
    "lat": 0.947414,
    "lon": -2.275223
  },
  {
    "name": "Fox Is",
    "code": "08438",
    "lat": 0.891532,
    "lon": -2.22711
  },
  {
    "name": "Shingle Bay",
    "code": "09808",
    "lat": 0.929458,
    "lon": -2.300728
  },
  {
    "name": "Cape Scott",
    "code": "08790",
    "lat": 0.886278,
    "lon": -2.241526
  },
  {
    "name": "Hunt Inlet",
    "code": "09310",
    "lat": 0.943665,
    "lon": -2.276712
  },
  {
    "name": "Tom Bay",
    "code": "09010",
    "lat": 0.914587,
    "lon": -2.238629
  },
  {
    "name": "Sunday Hbr",
    "code": "08340",
    "lat": 0.885231,
    "lon": -2.211332
  },
  {
    "name": "Makwazniht Isl",
    "code": "08756",
    "lat": 0.882369,
    "lon": -2.226237
  },
  {
    "name": "Crescent Beach",
    "code": "07579",
    "lat": 0.855793,
    "lon": -2.144719
  },
  {
    "name": "Zeballos",
    "code": "08670",
    "lat": 0.872298,
    "lon": -2.21388
  },
  {
    "name": "Salmon Cove",
    "code": "09435",
    "lat": 0.964539,
    "lon": -2.26624
  },
  {
    "name": "Cardale Point",
    "code": "07439",
    "lat": 0.855502,
    "lon": -2.157518
  },
  {
    "name": "Jessie Point",
    "code": "08371",
    "lat": 0.889263,
    "lon": -2.213287
  },
  {
    "name": "Bergh Cove",
    "code": "08754",
    "lat": 0.882037,
    "lon": -2.227459
  },
  {
    "name": "Tsawwassen",
    "code": "07590",
    "lat": 0.855211,
    "lon": -2.149082
  },
  {
    "name": "Lund",
    "code": "07885",
    "lat": 0.872374,
    "lon": -2.177589
  },
  {
    "name": "Shoal Bay",
    "code": "08145",
    "lat": 0.880693,
    "lon": -2.187962
  },
  {
    "name": "Smith Inlet",
    "code": "08814",
    "lat": 0.895982,
    "lon": -2.219849
  },
  {
    "name": "Thompson Bay",
    "code": "08998",
    "lat": 0.910364,
    "lon": -2.24027
  },
  {
    "name": "Luke Passage",
    "code": "08952",
    "lat": 0.909229,
    "lon": -2.231456
  },
  {
    "name": "Brown Bay",
    "code": "08110",
    "lat": 0.875492,
    "lon": -2.188207
  },
  {
    "name": "Gorge at Aaron Point",
    "code": "07122",
    "lat": 0.845514,
    "lon": -2.153653
  },
  {
    "name": "Trounce Inlet",
    "code": "09625",
    "lat": 0.927608,
    "lon": -2.309455
  },
  {
    "name": "Prideaux Haven",
    "code": "08008",
    "lat": 0.875283,
    "lon": -2.175902
  },
  {
    "name": "Esquimalt Government Hbr",
    "code": "07110",
    "lat": 0.845301,
    "lon": -2.154409
  },
  {
    "name": "Billy Goat Bay",
    "code": "08210",
    "lat": 0.879611,
    "lon": -2.196759
  },
  {
    "name": "False Creek",
    "code": "07710",
    "lat": 0.859941,
    "lon": -2.148849
  },
  {
    "name": "Waddington Hbr",
    "code": "08069",
    "lat": 0.887901,
    "lon": -2.179445
  },
  {
    "name": "Mermaid Bay",
    "code": "08135",
    "lat": 0.879716,
    "lon": -2.184897
  },
  {
    "name": "Kitimat",
    "code": "09140",
    "lat": 0.942286,
    "lon": -2.246169
  },
  {
    "name": "Point Atkinson",
    "code": "07795",
    "lat": 0.861093,
    "lon": -2.151171
  },
  {
    "name": "Walker Group",
    "code": "08426",
    "lat": 0.888355,
    "lon": -2.225749
  },
  {
    "name": "Gosling Is",
    "code": "08906",
    "lat": 0.905808,
    "lon": -2.241736
  },
  {
    "name": "Mereworth Sound",
    "code": "08476",
    "lat": 0.89319,
    "lon": -2.223707
  },
  {
    "name": "Gorge Hbr",
    "code": "08037",
    "lat": 0.87427,
    "lon": -2.18147
  },
  {
    "name": "Port Harvey",
    "code": "08250",
    "lat": 0.882578,
    "lon": -2.203792
  },
  {
    "name": "Chemainus",
    "code": "07455",
    "lat": 0.853913,
    "lon": -2.159224
  },
  {
    "name": "Pembina Terminal",
    "code": "09339",
    "lat": 0.946602,
    "lon": -2.274225
  },
  {
    "name": "Wainwright Basin",
    "code": "09343",
    "lat": 0.94695,
    "lon": -2.273557
  },
  {
    "name": "Whaler Bay",
    "code": "07532",
    "lat": 0.853175,
    "lon": -2.152282
  },
  {
    "name": "Belize Inlet",
    "code": "08482",
    "lat": 0.892247,
    "lon": -2.22135
  },
  {
    "name": "Addenbroke Isl",
    "code": "08860",
    "lat": 0.900677,
    "lon": -2.230985
  },
  {
    "name": "Brundige Inlet",
    "code": "09333",
    "lat": 0.953177,
    "lon": -2.283833
  },
  {
    "name": "Copper Is",
    "code": "09724",
    "lat": 0.913854,
    "lon": -2.28954
  },
  {
    "name": "Langara Point",
    "code": "09964",
    "lat": 0.946946,
    "lon": -2.322073
  },
  {
    "name": "Fulford Hbr",
    "code": "07330",
    "lat": 0.85118,
    "lon": -2.154626
  },
  {
    "name": "Montagu Point",
    "code": "08313",
    "lat": 0.883819,
    "lon": -2.202829
  },
  {
    "name": "Deep Cove",
    "code": "07765",
    "lat": 0.860919,
    "lon": -2.145847
  },
  {
    "name": "Boom Islet",
    "code": "07843",
    "lat": 0.868218,
    "lon": -2.162529
  },
  {
    "name": "Sedgwick Bay",
    "code": "09753",
    "lat": 0.918672,
    "lon": -2.296557
  },
  {
    "name": "Duncan Bay",
    "code": "08087",
    "lat": 0.873991,
    "lon": -2.186915
  },
  {
    "name": "Frederick Sd",
    "code": "08458",
    "lat": 0.890816,
    "lon": -2.211926
  },
  {
    "name": "Oak Bay",
    "code": "07130",
    "lat": 0.845153,
    "lon": -2.152038
  },
  {
    "name": "Bella Coola",
    "code": "08937",
    "lat": 0.914099,
    "lon": -2.213008
  },
  {
    "name": "Borrowman Bay",
    "code": "09080",
    "lat": 0.920434,
    "lon": -2.256379
  },
  {
    "name": "Tlell",
    "code": "09860",
    "lat": 0.934653,
    "lon": -2.302225
  },
  {
    "name": "Warn Bay",
    "code": "08626",
    "lat": 0.85938,
    "lon": -2.194674
  },
  {
    "name": "Raynor Group",
    "code": "08394",
    "lat": 0.888128,
    "lon": -2.220809
  },
  {
    "name": "Ucluelet",
    "code": "08595",
    "lat": 0.854286,
    "lon": -2.191296
  },
  {
    "name": "Butedale",
    "code": "09053",
    "lat": 0.927817,
    "lon": -2.246134
  },
  {
    "name": "Namu",
    "code": "08870",
    "lat": 0.905154,
    "lon": -2.231677
  },
  {
    "name": "Goose Is",
    "code": "08909",
    "lat": 0.907432,
    "lon": -2.24123
  },
  {
    "name": "High Is",
    "code": "09710",
    "lat": 0.909735,
    "lon": -2.286573
  },
  {
    "name": "Stewart",
    "code": "09475",
    "lat": 0.975929,
    "lon": -2.269103
  },
  {
    "name": "Comox",
    "code": "07965",
    "lat": 0.866905,
    "lon": -2.180405
  },
  {
    "name": "Welcome Hbr",
    "code": "09305",
    "lat": 0.942769,
    "lon": -2.279691
  },
  {
    "name": "Pacofi Bay",
    "code": "09775",
    "lat": 0.922092,
    "lon": -2.301793
  },
  {
    "name": "New Westminster",
    "code": "07654",
    "lat": 0.858702,
    "lon": -2.145184
  },
  {
    "name": "Porlier Pass",
    "code": "07437",
    "lat": 0.855409,
    "lon": -2.156981
  },
  {
    "name": "Port Edward",
    "code": "09342",
    "lat": 0.946475,
    "lon": -2.274094
  },
  {
    "name": "Gowlland Hbr",
    "code": "08082",
    "lat": 0.873799,
    "lon": -2.185449
  },
  {
    "name": "Lagoon Cove",
    "code": "08258",
    "lat": 0.883097,
    "lon": -2.204682
  },
  {
    "name": "Daajing Giids",
    "code": "09850",
    "lat": 0.929423,
    "lon": -2.305091
  },
  {
    "name": "Seymour Narrows",
    "code": "08105",
    "lat": 0.875021,
    "lon": -2.1877
  },
  {
    "name": "Granby Bay",
    "code": "09443",
    "lat": 0.967192,
    "lon": -2.265752
  },
  {
    "name": "Casey Cove",
    "code": "09350",
    "lat": 0.947347,
    "lon": -2.27549
  },
  {
    "name": "Head of Uchucklesit",
    "code": "08559",
    "lat": 0.855502,
    "lon": -2.182534
  },
  {
    "name": "Milne Is",
    "code": "09063",
    "lat": 0.9182,
    "lon": -2.247443
  },
  {
    "name": "Gorge at Craigflower",
    "code": "07124",
    "lat": 0.845628,
    "lon": -2.154112
  },
  {
    "name": "Port Louis",
    "code": "09671",
    "lat": 0.93698,
    "lon": -2.320607
  },
  {
    "name": "Port Neville",
    "code": "08245",
    "lat": 0.881321,
    "lon": -2.200633
  },
  {
    "name": "Ranger Islet",
    "code": "09418",
    "lat": 0.957086,
    "lon": -2.271982
  },
  {
    "name": "Finnerty Cove",
    "code": "07140",
    "lat": 0.846024,
    "lon": -2.151923
  },
  {
    "name": "Sand Heads",
    "code": "07594",
    "lat": 0.857047,
    "lon": -2.152064
  },
  {
    "name": "Porpoise Bay",
    "code": "07852",
    "lat": 0.863624,
    "lon": -2.160002
  },
  {
    "name": "Little River",
    "code": "07993",
    "lat": 0.868144,
    "lon": -2.180318
  },
  {
    "name": "Ocean Falls",
    "code": "08962",
    "lat": 0.913715,
    "lon": -2.228663
  },
  {
    "name": "Tumbo Channel",
    "code": "07510",
    "lat": 0.851602,
    "lon": -2.148654
  },
  {
    "name": "Heriot Bay",
    "code": "08035",
    "lat": 0.87441,
    "lon": -2.185152
  },
  {
    "name": "Powell River",
    "code": "07880",
    "lat": 0.870338,
    "lon": -2.173808
  },
  {
    "name": "Swartz Bay",
    "code": "07270",
    "lat": 0.849787,
    "lon": -2.153925
  },
  {
    "name": "Quathiaski Cove",
    "code": "08079",
    "lat": 0.873485,
    "lon": -2.185466
  },
  {
    "name": "Bonilla Is",
    "code": "09227",
    "lat": 0.933643,
    "lon": -2.280045
  },
  {
    "name": "Copp Is",
    "code": "08714",
    "lat": 0.873466,
    "lon": -2.21989
  },
  {
    "name": "Port Renfrew",
    "code": "08525",
    "lat": 0.847445,
    "lon": -2.171556
  },
  {
    "name": "Khyex River",
    "code": "09275",
    "lat": 0.94637,
    "lon": -2.265437
  },
  {
    "name": "Steveston",
    "code": "07607",
    "lat": 0.857384,
    "lon": -2.15011
  },
  {
    "name": "Juskatla",
    "code": "09927",
    "lat": 0.935985,
    "lon": -2.309402
  },
  {
    "name": "Squamish Inner",
    "code": "07811",
    "lat": 0.867341,
    "lon": -2.14946
  },
  {
    "name": "Point No Point",
    "code": "07010",
    "lat": 0.844654,
    "lon": -2.1637
  },
  {
    "name": "Kitkatla",
    "code": "09242",
    "lat": 0.939039,
    "lon": -2.275159
  },
  {
    "name": "Ladysmith",
    "code": "07460",
    "lat": 0.855193,
    "lon": -2.160985
  },
  {
    "name": "Irvines Landing",
    "code": "07836",
    "lat": 0.866259,
    "lon": -2.165221
  },
  {
    "name": "Lowe Inlet",
    "code": "09195",
    "lat": 0.934624,
    "lon": -2.261656
  },
  {
    "name": "Smithers Is",
    "code": "09067",
    "lat": 0.920801,
    "lon": -2.252749
  },
  {
    "name": "Brentwood Bay",
    "code": "07280",
    "lat": 0.847846,
    "lon": -2.154906
  },
  {
    "name": "Storm Bay",
    "code": "07847",
    "lat": 0.866765,
    "lon": -2.161171
  },
  {
    "name": "Northwest Bay",
    "code": "07938",
    "lat": 0.8605,
    "lon": -2.167734
  },
  {
    "name": "Leroy Bay",
    "code": "08810",
    "lat": 0.894883,
    "lon": -2.228157
  },
  {
    "name": "Sidney",
    "code": "07260",
    "lat": 0.849089,
    "lon": -2.153612
  },
  {
    "name": "Lawyer Is",
    "code": "09312",
    "lat": 0.94431,
    "lon": -2.274757
  },
  {
    "name": "Port Alberni",
    "code": "08575",
    "lat": 0.859278,
    "lon": -2.178415
  },
  {
    "name": "Alice Arm",
    "code": "09448",
    "lat": 0.968134,
    "lon": -2.260132
  },
  {
    "name": "Port Blackney",
    "code": "09005",
    "lat": 0.913017,
    "lon": -2.240148
  },
  {
    "name": "Shushartie Bay",
    "code": "08416",
    "lat": 0.887605,
    "lon": -2.231561
  },
  {
    "name": "Dionisio Point",
    "code": "07535",
    "lat": 0.855454,
    "lon": -2.156771
  },
  {
    "name": "Blind Bay",
    "code": "07865",
    "lat": 0.867708,
    "lon": -2.167332
  },
  {
    "name": "Finlayson Arm",
    "code": "07284",
    "lat": 0.846425,
    "lon": -2.156405
  },
  {
    "name": "Hope Bay",
    "code": "07360",
    "lat": 0.85178,
    "lon": -2.15157
  },
  {
    "name": "Cape St James",
    "code": "09502",
    "lat": 0.906489,
    "lon": -2.286643
  },
  {
    "name": "William Head",
    "code": "07082",
    "lat": 0.84371,
    "lon": -2.156126
  },
  {
    "name": "Twin Is",
    "code": "07892",
    "lat": 0.873188,
    "lon": -2.18044
  },
  {
    "name": "Kynumpt Hbr",
    "code": "08978",
    "lat": 0.911201,
    "lon": -2.236849
  },
  {
    "name": "Orford Bay",
    "code": "08065",
    "lat": 0.883101,
    "lon": -2.179295
  },
  {
    "name": "Sidney Bay",
    "code": "08162",
    "lat": 0.881682,
    "lon": -2.191843
  },
  {
    "name": "Denman Is",
    "code": "07955",
    "lat": 0.86454,
    "lon": -2.178536
  },
  {
    "name": "Cypress Bay",
    "code": "08630",
    "lat": 0.859767,
    "lon": -2.196863
  },
  {
    "name": "Kumeon Bay",
    "code": "09414",
    "lat": 0.954922,
    "lon": -2.273117
  },
  {
    "name": "Samuel Is",
    "code": "07515",
    "lat": 0.852012,
    "lon": -2.150246
  },
  {
    "name": "Vancouver",
    "code": "07735",
    "lat": 0.860208,
    "lon": -2.148495
  },
  {
    "name": "Masset",
    "code": "09910",
    "lat": 0.942652,
    "lon": -2.306435
  },
  {
    "name": "Ganges",
    "code": "07407",
    "lat": 0.852653,
    "lon": -2.155435
  },
  {
    "name": "Sullivan Bay",
    "code": "08364",
    "lat": 0.888128,
    "lon": -2.213531
  },
  {
    "name": "Miners Bay",
    "code": "07528",
    "lat": 0.852593,
    "lon": -2.151991
  },
  {
    "name": "Victoria Hbr",
    "code": "07120",
    "lat": 0.84517,
    "lon": -2.153225
  },
  {
    "name": "Owen Bay",
    "code": "08120",
    "lat": 0.878083,
    "lon": -2.185561
  },
  {
    "name": "McCoy Cove",
    "code": "09790",
    "lat": 0.92574,
    "lon": -2.29797
  },
  {
    "name": "Channel Is",
    "code": "08015",
    "lat": 0.878192,
    "lon": -2.177298
  },
  {
    "name": "Winter Hbr",
    "code": "08735",
    "lat": 0.881618,
    "lon": -2.234528
  },
  {
    "name": "Prince Rupert",
    "code": "09354",
    "lat": 0.94801,
    "lon": -2.274583
  },
  {
    "name": "Stopper Is",
    "code": "08588",
    "lat": 0.855089,
    "lon": -2.1877
  },
  {
    "name": "Blubber Bay",
    "code": "07875",
    "lat": 0.869174,
    "lon": -2.174971
  },
  {
    "name": "Gold River",
    "code": "08650",
    "lat": 0.867062,
    "lon": -2.201314
  },
  {
    "name": "Port Hardy",
    "code": "08408",
    "lat": 0.885266,
    "lon": -2.225103
  },
  {
    "name": "Surf Inlet",
    "code": "09090",
    "lat": 0.925606,
    "lon": -2.249729
  },
  {
    "name": "Kwinitsa River",
    "code": "09285",
    "lat": 0.946259,
    "lon": -2.261656
  },
  {
    "name": "Cordero Is",
    "code": "08150",
    "lat": 0.880379,
    "lon": -2.190249
  },
  {
    "name": "Joassa Channel",
    "code": "08922",
    "lat": 0.910922,
    "lon": -2.239415
  },
  {
    "name": "Becher Bay",
    "code": "07030",
    "lat": 0.843603,
    "lon": -2.157293
  },
  {
    "name": "Armentiere Channel",
    "code": "09605",
    "lat": 0.927032,
    "lon": -2.310624
  },
  {
    "name": "Sheringham Point",
    "code": "07013",
    "lat": 0.844339,
    "lon": -2.162832
  },
  {
    "name": "Hunger Hbr",
    "code": "09570",
    "lat": 0.92094,
    "lon": -2.304655
  },
  {
    "name": "Valdes Is",
    "code": "07542",
    "lat": 0.856224,
    "lon": -2.157576
  },
  {
    "name": "Growler Cove",
    "code": "08270",
    "lat": 0.881915,
    "lon": -2.209936
  },
  {
    "name": "Jennis Bay",
    "code": "08384",
    "lat": 0.888599,
    "lon": -2.217022
  },
  {
    "name": "Glendale Cove",
    "code": "08310",
    "lat": 0.884433,
    "lon": -2.194522
  },
  {
    "name": "Bamfield",
    "code": "08545",
    "lat": 0.852349,
    "lon": -2.184035
  },
  {
    "name": "Pender Hbr",
    "code": "07837",
    "lat": 0.866259,
    "lon": -2.164767
  },
  {
    "name": "Stuart Narrows",
    "code": "08379",
    "lat": 0.88832,
    "lon": -2.214753
  },
  {
    "name": "Darrell Bay",
    "code": "07808",
    "lat": 0.866888,
    "lon": -2.149705
  },
  {
    "name": "Haysport",
    "code": "09266",
    "lat": 0.945584,
    "lon": -2.269085
  },
  {
    "name": "Bloedel, Menzies Bay, BC",
    "code": "08095",
    "lat": 0.874724,
    "lon": -2.188311
  },
  {
    "name": "Esquimalt Hbr",
    "code": "07109",
    "lat": 0.845445,
    "lon": -2.154606
  },
  {
    "name": "Treadwell Bay",
    "code": "08440",
    "lat": 0.891916,
    "lon": -2.22601
  },
  {
    "name": "Chatham Pt",
    "code": "08180",
    "lat": 0.878442,
    "lon": -2.189376
  },
  {
    "name": "Big Bay, Stuart Is",
    "code": "08060",
    "lat": 0.879524,
    "lon": -2.184022
  },
  {
    "name": "Surge Narrows",
    "code": "08045",
    "lat": 0.87663,
    "lon": -2.183616
  },
  {
    "name": "Alison Sound",
    "code": "08488",
    "lat": 0.892928,
    "lon": -2.216254
  },
  {
    "name": "Wadhams",
    "code": "08840",
    "lat": 0.899019,
    "lon": -2.225714
  },
  {
    "name": "Qlawdzeet Anchorage",
    "code": "09315",
    "lat": 0.946108,
    "lon": -2.282332
  },
  {
    "name": "Hunt Islet",
    "code": "08736",
    "lat": 0.880937,
    "lon": -2.234545
  },
  {
    "name": "Mutine Point",
    "code": "08556",
    "lat": 0.854199,
    "lon": -2.181993
  },
  {
    "name": "Effingham Bay",
    "code": "08585",
    "lat": 0.853082,
    "lon": -2.187124
  },
  {
    "name": "Port McNeill",
    "code": "08290",
    "lat": 0.883014,
    "lon": -2.218209
  },
  {
    "name": "Cowichan Bay",
    "code": "07310",
    "lat": 0.85068,
    "lon": -2.157548
  },
  {
    "name": "Boswell Inlet",
    "code": "08812",
    "lat": 0.896611,
    "lon": -2.224754
  },
  {
    "name": "Gerald Point",
    "code": "08996",
    "lat": 0.915216,
    "lon": -2.235488
  },
  {
    "name": "Ceepeecee",
    "code": "08664",
    "lat": 0.870466,
    "lon": -2.211611
  },
  {
    "name": "Selkirk Water",
    "code": "07121",
    "lat": 0.845425,
    "lon": -2.153378
  },
  {
    "name": "Siwash Bay",
    "code": "08311",
    "lat": 0.884658,
    "lon": -2.194937
  },
  {
    "name": "Clover Point",
    "code": "07115",
    "lat": 0.844806,
    "lon": -2.152839
  },
  {
    "name": "Atli Inlet",
    "code": "09765",
    "lat": 0.920033,
    "lon": -2.296452
  },
  {
    "name": "Draney Inlet",
    "code": "08830",
    "lat": 0.898426,
    "lon": -2.226185
  },
  {
    "name": "Claxton",
    "code": "09260",
    "lat": 0.943857,
    "lon": -2.270481
  },
  {
    "name": "Coal Hbr",
    "code": "08765",
    "lat": 0.883119,
    "lon": -2.226709
  },
  {
    "name": "Tofino",
    "code": "08615",
    "lat": 0.857899,
    "lon": -2.197596
  },
  {
    "name": "Henslung Cove",
    "code": "09958",
    "lat": 0.945811,
    "lon": -2.321323
  },
  {
    "name": "Preedy Hbr",
    "code": "07471",
    "lat": 0.854866,
    "lon": -2.158583
  },
  {
    "name": "Halfmoon Bay",
    "code": "07830",
    "lat": 0.86413,
    "lon": -2.162672
  },
  {
    "name": "Indian Arm Head",
    "code": "07774",
    "lat": 0.863271,
    "lon": -2.144767
  },
  {
    "name": "Johnson Point",
    "code": "08470",
    "lat": 0.892038,
    "lon": -2.225941
  },
  {
    "name": "Gordon Is",
    "code": "09512",
    "lat": 0.909482,
    "lon": -2.288842
  },
  {
    "name": "Silva Bay",
    "code": "07550",
    "lat": 0.857829,
    "lon": -2.158972
  },
  {
    "name": "Porpoise Channel E",
    "code": "09341",
    "lat": 0.946233,
    "lon": -2.273973
  },
  {
    "name": "Calamity Point",
    "code": "07724",
    "lat": 0.860667,
    "lon": -2.148983
  },
  {
    "name": "Cedar Is",
    "code": "08325",
    "lat": 0.884126,
    "lon": -2.210896
  },
  {
    "name": "Gorge at Tillicum",
    "code": "07123",
    "lat": 0.845573,
    "lon": -2.153799
  },
  {
    "name": "Hornby Is",
    "code": "07953",
    "lat": 0.863872,
    "lon": -2.176007
  },
  {
    "name": "Port Moody",
    "code": "07755",
    "lat": 0.860238,
    "lon": -2.144416
  },
  {
    "name": "Nesto Inlet",
    "code": "09667",
    "lat": 0.934624,
    "lon": -2.319833
  },
  {
    "name": "Sulphur Passage",
    "code": "08634",
    "lat": 0.862262,
    "lon": -2.200302
  },
  {
    "name": "Redonda Bay",
    "code": "08025",
    "lat": 0.87722,
    "lon": -2.181574
  },
  {
    "name": "French Creek",
    "code": "07940",
    "lat": 0.861313,
    "lon": -2.170471
  },
  {
    "name": "Morse Basin",
    "code": "09344",
    "lat": 0.946986,
    "lon": -2.273075
  },
  {
    "name": "Kemano Bay",
    "code": "09150",
    "lat": 0.933367,
    "lon": -2.236186
  },
  {
    "name": "Franklin River",
    "code": "08565",
    "lat": 0.857096,
    "lon": -2.17838
  },
  {
    "name": "Kelsey Bay",
    "code": "08215",
    "lat": 0.879611,
    "lon": -2.198434
  },
  {
    "name": "Egg Is",
    "code": "08805",
    "lat": 0.894464,
    "lon": -2.231159
  },
  {
    "name": "Higgins Passage",
    "code": "09056",
    "lat": 0.916001,
    "lon": -2.247321
  },
  {
    "name": "Roberts Creek",
    "code": "07824",
    "lat": 0.862524,
    "lon": -2.15796
  },
  {
    "name": "Saltery Bay",
    "code": "07868",
    "lat": 0.868883,
    "lon": -2.167408
  },
  {
    "name": "Woodward's Landing",
    "code": "07610",
    "lat": 0.857395,
    "lon": -2.148071
  },
  {
    "name": "Sandy Cove",
    "code": "07786",
    "lat": 0.861154,
    "lon": -2.150802
  },
  {
    "name": "Skerry Bay",
    "code": "07985",
    "lat": 0.863938,
    "lon": -2.168345
  },
  {
    "name": "Humpback Bay",
    "code": "09309",
    "lat": 0.943996,
    "lon": -2.275822
  },
  {
    "name": "Heater Hbr",
    "code": "09708",
    "lat": 0.909607,
    "lon": -2.286963
  },
  {
    "name": "Seal Cove",
    "code": "09360",
    "lat": 0.948257,
    "lon": -2.273808
  },
  {
    "name": "Sooke",
    "code": "07020",
    "lat": 0.844207,
    "lon": -2.159426
  },
  {
    "name": "Bunsby Is",
    "code": "08720",
    "lat": 0.874716,
    "lon": -2.225462
  },
  {
    "name": "Roberts Bank",
    "code": "07592",
    "lat": 0.855473,
    "lon": -2.149478
  },
  {
    "name": "Georgina Point",
    "code": "07525",
    "lat": 0.852986,
    "lon": -2.151857
  },
  {
    "name": "Crofton",
    "code": "07450",
    "lat": 0.853022,
    "lon": -2.157986
  },
  {
    "name": "Gingolx",
    "code": "09422",
    "lat": 0.959914,
    "lon": -2.268544
  },
  {
    "name": "Lax Kw'alaams",
    "code": "09390",
    "lat": 0.952252,
    "lon": -2.27645
  },
  {
    "name": "Portage Inlet",
    "code": "07125",
    "lat": 0.845736,
    "lon": -2.154026
  },
  {
    "name": "Hudson Bay Passage",
    "code": "09329",
    "lat": 0.950454,
    "lon": -2.283728
  },
  {
    "name": "Yorke Is",
    "code": "08233",
    "lat": 0.880414,
    "lon": -2.198731
  },
  {
    "name": "Block Is",
    "code": "09165",
    "lat": 0.927765,
    "lon": -2.264408
  },
  {
    "name": "Campbell River",
    "code": "08074",
    "lat": 0.873398,
    "lon": -2.185973
  },
  {
    "name": "Narvaez Bay",
    "code": "07345",
    "lat": 0.851272,
    "lon": -2.148467
  },
  {
    "name": "Whaletown",
    "code": "08038",
    "lat": 0.87455,
    "lon": -2.182569
  },
  {
    "name": "Kennedy Cove",
    "code": "08623",
    "lat": 0.857655,
    "lon": -2.193373
  },
  {
    "name": "Herbert Inlet",
    "code": "08632",
    "lat": 0.86125,
    "lon": -2.198836
  },
  {
    "name": "Blind Channel",
    "code": "08155",
    "lat": 0.87989,
    "lon": -2.190423
  },
  {
    "name": "Seabreeze Point",
    "code": "09250",
    "lat": 0.942251,
    "lon": -2.272105
  },
  {
    "name": "Carpenter Bay",
    "code": "09717",
    "lat": 0.91176,
    "lon": -2.289104
  },
  {
    "name": "Refuge Bay",
    "code": "09306",
    "lat": 0.943403,
    "lon": -2.27837
  },
  {
    "name": "Nanoose Bay",
    "code": "07930",
    "lat": 0.859575,
    "lon": -2.167175
  },
  {
    "name": "Riley Cove",
    "code": "08637",
    "lat": 0.862036,
    "lon": -2.203042
  },
  {
    "name": "Hartley Bay",
    "code": "09130",
    "lat": 0.932428,
    "lon": -2.255871
  },
  {
    "name": "Saavedra Is",
    "code": "08645",
    "lat": 0.866067,
    "lon": -2.209884
  },
  {
    "name": "Samuel Is",
    "code": "07370",
    "lat": 0.852099,
    "lon": -2.150392
  },
  {
    "name": "Montague Hbr",
    "code": "07420",
    "lat": 0.853339,
    "lon": -2.1536
  },
  {
    "name": "McPherson Pt",
    "code": "09963",
    "lat": 0.946789,
    "lon": -2.320939
  },
  {
    "name": "Inverness",
    "code": "09340",
    "lat": 0.945864,
    "lon": -2.272853
  },
  {
    "name": "Griffin Passage",
    "code": "09020",
    "lat": 0.92101,
    "lon": -2.24006
  },
  {
    "name": "Mill Bay",
    "code": "09425",
    "lat": 0.959826,
    "lon": -2.267026
  },
  {
    "name": "Port Clements",
    "code": "09920",
    "lat": 0.93705,
    "lon": -2.307098
  },
  {
    "name": "Shields Bay",
    "code": "09650",
    "lat": 0.930487,
    "lon": -2.311113
  },
  {
    "name": "Gibsons",
    "code": "07820",
    "lat": 0.862228,
    "lon": -2.155569
  },
  {
    "name": "Spider Is",
    "code": "08912",
    "lat": 0.904866,
    "lon": -2.238053
  },
  {
    "name": "McKenney Isl",
    "code": "09077",
    "lat": 0.918916,
    "lon": -2.259713
  },
  {
    "name": "Boat Hbr",
    "code": "07480",
    "lat": 0.856782,
    "lon": -2.160686
  },
  {
    "name": "Gillen Hbr",
    "code": "09105",
    "lat": 0.924396,
    "lon": -2.262051
  },
  {
    "name": "Port Alice",
    "code": "08750",
    "lat": 0.879367,
    "lon": -2.224509
  },
  {
    "name": "Beauchemin Channel",
    "code": "09082",
    "lat": 0.921143,
    "lon": -2.256764
  },
  {
    "name": "Kwokwesta Creek",
    "code": "08755",
    "lat": 0.881863,
    "lon": -2.226499
  },
  {
    "name": "Wiah Point",
    "code": "09940",
    "lat": 0.944433,
    "lon": -2.309245
  },
  {
    "name": "Winchelsea Is",
    "code": "07935",
    "lat": 0.860447,
    "lon": -2.165709
  },
  {
    "name": "Pedder Bay",
    "code": "07080",
    "lat": 0.843547,
    "lon": -2.156356
  },
  {
    "name": "Trail Bay",
    "code": "09406",
    "lat": 0.952653,
    "lon": -2.275159
  },
  {
    "name": "Rose Hbr",
    "code": "09713",
    "lat": 0.91028,
    "lon": -2.287968
  },
  {
    "name": "Esperanza",
    "code": "08665",
    "lat": 0.870431,
    "lon": -2.2121
  },
  {
    "name": "White Rock",
    "code": "07577",
    "lat": 0.855502,
    "lon": -2.143264
  },
  {
    "name": "Nugent Sound",
    "code": "08464",
    "lat": 0.891572,
    "lon": -2.220931
  },
  {
    "name": "Stryker Is",
    "code": "08917",
    "lat": 0.909194,
    "lon": -2.240095
  },
  {
    "name": "Griffith Hbr",
    "code": "09230",
    "lat": 0.935479,
    "lon": -2.278405
  },
  {
    "name": "Houston Stewart Channel W",
    "code": "09511",
    "lat": 0.909026,
    "lon": -2.288418
  },
  {
    "name": "Florence Cove",
    "code": "08055",
    "lat": 0.878128,
    "lon": -2.184541
  },
  {
    "name": "Brooksby Point",
    "code": "08558",
    "lat": 0.854897,
    "lon": -2.1814
  },
  {
    "name": "Kingcome Inlet",
    "code": "08348",
    "lat": 0.888525,
    "lon": -2.202596
  },
  {
    "name": "Trounce Inlet N",
    "code": "09627",
    "lat": 0.927788,
    "lon": -2.309467
  },
  {
    "name": "Bella Bella",
    "code": "08976",
    "lat": 0.910416,
    "lon": -2.236517
  },
  {
    "name": "Kitsilano",
    "code": "07707",
    "lat": 0.860041,
    "lon": -2.149185
  },
  {
    "name": "Kyuquot",
    "code": "08710",
    "lat": 0.873118,
    "lon": -2.223131
  },
  {
    "name": "Nanaimo Hbr",
    "code": "07917",
    "lat": 0.858053,
    "lon": -2.162873
  }
]