[{"name":"Knox Bay","code":8195,"lat":0.879419,"lon":-2.192465},{"name":"Klemtu","code":9035,"lat":0.917938,"lon":-2.243115},{"name":"Adams Hbr","code":8865,"lat":0.902044,"lon":-2.235767},{"name":"Harmac","code":7913,"lat":0.857655,"lon":-2.16152},{"name":"Barnard Hbr","code":9115,"lat":0.926316,"lon":-2.253517},{"name":"Price Is","code":9058,"lat":0.912423,"lon":-2.245802},{"name":"Octopus Is","code":8050,"lat":0.877586,"lon":-2.185571},{"name":"Fair Hbr","code":8715,"lat":0.873867,"lon":-2.218992},{"name":"Egeria Bay","code":9961,"lat":0.946259,"lon":-2.320706},{"name":"Troup Passage","code":8981,"lat":0.911795,"lon":-2.234702},{"name":"Aero Trading","code":9338,"lat":0.946195,"lon":-2.273961},{"name":"Mitlenatch","code":7895,"lat":0.871792,"lon":-2.181627},{"name":"Alert Bay","code":8280,"lat":0.88291,"lon":-2.215364},{"name":"Ambleside","code":7780,"lat":0.860901,"lon":-2.14946},{"name":"Prince Rupert RoRo","code":9346,"lat":0.946577,"lon":-2.274777},{"name":"Sooke Basin","code":7024,"lat":0.844289,"lon":-2.158655},{"name":"Forit Bay","code":8958,"lat":0.910608,"lon":-2.232451},{"name":"Maple Bay","code":7315,"lat":0.851995,"lon":-2.157395},{"name":"Saanichton Bay","code":7255,"lat":0.848211,"lon":-2.153536},{"name":"Welcome Bay","code":7990,"lat":0.867429,"lon":-2.173808},{"name":"Dawson Hbr","code":9635,"lat":0.927933,"lon":-2.311979},{"name":"Moffatt Is","code":9325,"lat":0.950262,"lon":-2.281599},{"name":"Okeover Inlet","code":8006,"lat":0.872316,"lon":-2.176426},{"name":"Meyers Narrows","code":9060,"lat":0.918113,"lon":-2.24479},{"name":"Egmont","code":7842,"lat":0.868284,"lon":-2.162987},{"name":"Village Bay","code":7414,"lat":0.852497,"lon":-2.152412},{"name":"Larsen Is","code":9232,"lat":0.935828,"lon":-2.278946},{"name":"Bedwell Hbr","code":7350,"lat":0.85081,"lon":-2.150722},{"name":"Patricia Bay","code":7277,"lat":0.849166,"lon":-2.154635},{"name":"False Bay","code":7982,"lat":0.863641,"lon":-2.170317},{"name":"Degnen Bay","code":7445,"lat":0.857538,"lon":-2.159263},{"name":"Kwatsi Bay","code":8347,"lat":0.88775,"lon":-2.203454},{"name":"Fairview Terminal","code":9348,"lat":0.947414,"lon":-2.275223},{"name":"Fox Is","code":8438,"lat":0.891532,"lon":-2.22711},{"name":"Shingle Bay","code":9808,"lat":0.929458,"lon":-2.300728},{"name":"Cape Scott","code":8790,"lat":0.886278,"lon":-2.241526},{"name":"Hunt Inlet","code":9310,"lat":0.943665,"lon":-2.276712},{"name":"Tom Bay","code":9010,"lat":0.914587,"lon":-2.238629},{"name":"Sunday Hbr","code":8340,"lat":0.885231,"lon":-2.211332},{"name":"Makwazniht Isl","code":8756,"lat":0.882369,"lon":-2.226237},{"name":"Crescent Beach","code":7579,"lat":0.855793,"lon":-2.144719},{"name":"Zeballos","code":8670,"lat":0.872298,"lon":-2.21388},{"name":"Salmon Cove","code":9435,"lat":0.964539,"lon":-2.26624},{"name":"Cardale Point","code":7439,"lat":0.855502,"lon":-2.157518},{"name":"Jessie Point","code":8371,"lat":0.889263,"lon":-2.213287},{"name":"Bergh Cove","code":8754,"lat":0.882037,"lon":-2.227459},{"name":"Tsawwassen","code":7590,"lat":0.855211,"lon":-2.149082},{"name":"Lund","code":7885,"lat":0.872374,"lon":-2.177589},{"name":"Shoal Bay","code":8145,"lat":0.880693,"lon":-2.187962},{"name":"Smith Inlet","code":8814,"lat":0.895982,"lon":-2.219849},{"name":"Thompson Bay","code":8998,"lat":0.910364,"lon":-2.24027},{"name":"Luke Passage","code":8952,"lat":0.909229,"lon":-2.231456},{"name":"Brown Bay","code":8110,"lat":0.875492,"lon":-2.188207},{"name":"Gorge at Aaron Point","code":7122,"lat":0.845514,"lon":-2.153653},{"name":"Trounce Inlet","code":9625,"lat":0.927608,"lon":-2.309455},{"name":"Prideaux Haven","code":8008,"lat":0.875283,"lon":-2.175902},{"name":"Esquimalt Government Hbr","code":7110,"lat":0.845301,"lon":-2.154409},{"name":"Billy Goat Bay","code":8210,"lat":0.879611,"lon":-2.196759},{"name":"False Creek","code":7710,"lat":0.859941,"lon":-2.148849},{"name":"Waddington Hbr","code":8069,"lat":0.887901,"lon":-2.179445},{"name":"Mermaid Bay","code":8135,"lat":0.879716,"lon":-2.184897},{"name":"Kitimat","code":9140,"lat":0.942286,"lon":-2.246169},{"name":"Point Atkinson","code":7795,"lat":0.861093,"lon":-2.151171},{"name":"Walker Group","code":8426,"lat":0.888355,"lon":-2.225749},{"name":"Gosling Is","code":8906,"lat":0.905808,"lon":-2.241736},{"name":"Mereworth Sound","code":8476,"lat":0.89319,"lon":-2.223707},{"name":"Gorge Hbr","code":8037,"lat":0.87427,"lon":-2.18147},{"name":"Port Harvey","code":8250,"lat":0.882578,"lon":-2.203792},{"name":"Chemainus","code":7455,"lat":0.853913,"lon":-2.159224},{"name":"Pembina Terminal","code":9339,"lat":0.946602,"lon":-2.274225},{"name":"Wainwright Basin","code":9343,"lat":0.94695,"lon":-2.273557},{"name":"Whaler Bay","code":7532,"lat":0.853175,"lon":-2.152282},{"name":"Belize Inlet","code":8482,"lat":0.892247,"lon":-2.22135},{"name":"Addenbroke Isl","code":8860,"lat":0.900677,"lon":-2.230985},{"name":"Brundige Inlet","code":9333,"lat":0.953177,"lon":-2.283833},{"name":"Copper Is","code":9724,"lat":0.913854,"lon":-2.28954},{"name":"Langara Point","code":9964,"lat":0.946946,"lon":-2.322073},{"name":"Fulford Hbr","code":7330,"lat":0.85118,"lon":-2.154626},{"name":"Montagu Point","code":8313,"lat":0.883819,"lon":-2.202829},{"name":"Deep Cove","code":7765,"lat":0.860919,"lon":-2.145847},{"name":"Boom Islet","code":7843,"lat":0.868218,"lon":-2.162529},{"name":"Sedgwick Bay","code":9753,"lat":0.918672,"lon":-2.296557},{"name":"Duncan Bay","code":8087,"lat":0.873991,"lon":-2.186915},{"name":"Frederick Sd","code":8458,"lat":0.890816,"lon":-2.211926},{"name":"Oak Bay","code":7130,"lat":0.845153,"lon":-2.152038},{"name":"Bella Coola","code":8937,"lat":0.914099,"lon":-2.213008},{"name":"Borrowman Bay","code":9080,"lat":0.920434,"lon":-2.256379},{"name":"Tlell","code":9860,"lat":0.934653,"lon":-2.302225},{"name":"Warn Bay","code":8626,"lat":0.85938,"lon":-2.194674},{"name":"Raynor Group","code":8394,"lat":0.888128,"lon":-2.220809},{"name":"Ucluelet","code":8595,"lat":0.854286,"lon":-2.191296},{"name":"Butedale","code":9053,"lat":0.927817,"lon":-2.246134},{"name":"Namu","code":8870,"lat":0.905154,"lon":-2.231677},{"name":"Goose Is","code":8909,"lat":0.907432,"lon":-2.24123},{"name":"High Is","code":9710,"lat":0.909735,"lon":-2.286573},{"name":"Stewart","code":9475,"lat":0.975929,"lon":-2.269103},{"name":"Comox","code":7965,"lat":0.866905,"lon":-2.180405},{"name":"Welcome Hbr","code":9305,"lat":0.942769,"lon":-2.279691},{"name":"Pacofi Bay","code":9775,"lat":0.922092,"lon":-2.301793},{"name":"New Westminster","code":7654,"lat":0.858702,"lon":-2.145184},{"name":"Porlier Pass","code":7437,"lat":0.855409,"lon":-2.156981},{"name":"Port Edward","code":9342,"lat":0.946475,"lon":-2.274094},{"name":"Gowlland Hbr","code":8082,"lat":0.873799,"lon":-2.185449},{"name":"Lagoon Cove","code":8258,"lat":0.883097,"lon":-2.204682},{"name":"Daajing Giids","code":9850,"lat":0.929423,"lon":-2.305091},{"name":"Seymour Narrows","code":8105,"lat":0.875021,"lon":-2.1877},{"name":"Granby Bay","code":9443,"lat":0.967192,"lon":-2.265752},{"name":"Casey Cove","code":9350,"lat":0.947347,"lon":-2.27549},{"name":"Head of Uchucklesit","code":8559,"lat":0.855502,"lon":-2.182534},{"name":"Milne Is","code":9063,"lat":0.9182,"lon":-2.247443},{"name":"Gorge at Craigflower","code":7124,"lat":0.845628,"lon":-2.154112},{"name":"Port Louis","code":9671,"lat":0.93698,"lon":-2.320607},{"name":"Port Neville","code":8245,"lat":0.881321,"lon":-2.200633},{"name":"Ranger Islet","code":9418,"lat":0.957086,"lon":-2.271982},{"name":"Finnerty Cove","code":7140,"lat":0.846024,"lon":-2.151923},{"name":"Sand Heads","code":7594,"lat":0.857047,"lon":-2.152064},{"name":"Porpoise Bay","code":7852,"lat":0.863624,"lon":-2.160002},{"name":"Little River","code":7993,"lat":0.868144,"lon":-2.180318},{"name":"Ocean Falls","code":8962,"lat":0.913715,"lon":-2.228663},{"name":"Tumbo Channel","code":7510,"lat":0.851602,"lon":-2.148654},{"name":"Heriot Bay","code":8035,"lat":0.87441,"lon":-2.185152},{"name":"Powell River","code":7880,"lat":0.870338,"lon":-2.173808},{"name":"Swartz Bay","code":7270,"lat":0.849787,"lon":-2.153925},{"name":"Quathiaski Cove","code":8079,"lat":0.873485,"lon":-2.185466},{"name":"Bonilla Is","code":9227,"lat":0.933643,"lon":-2.280045},{"name":"Copp Is","code":8714,"lat":0.873466,"lon":-2.21989},{"name":"Port Renfrew","code":8525,"lat":0.847445,"lon":-2.171556},{"name":"Khyex River","code":9275,"lat":0.94637,"lon":-2.265437},{"name":"Steveston","code":7607,"lat":0.857384,"lon":-2.15011},{"name":"Juskatla","code":9927,"lat":0.935985,"lon":-2.309402},{"name":"Squamish Inner","code":7811,"lat":0.867341,"lon":-2.14946},{"name":"Point No Point","code":7010,"lat":0.844654,"lon":-2.1637},{"name":"Kitkatla","code":9242,"lat":0.939039,"lon":-2.275159},{"name":"Ladysmith","code":7460,"lat":0.855193,"lon":-2.160985},{"name":"Irvines Landing","code":7836,"lat":0.866259,"lon":-2.165221},{"name":"Lowe Inlet","code":9195,"lat":0.934624,"lon":-2.261656},{"name":"Smithers Is","code":9067,"lat":0.920801,"lon":-2.252749},{"name":"Brentwood Bay","code":7280,"lat":0.847846,"lon":-2.154906},{"name":"Storm Bay","code":7847,"lat":0.866765,"lon":-2.161171},{"name":"Northwest Bay","code":7938,"lat":0.8605,"lon":-2.167734},{"name":"Leroy Bay","code":8810,"lat":0.894883,"lon":-2.228157},{"name":"Sidney","code":7260,"lat":0.849089,"lon":-2.153612},{"name":"Lawyer Is","code":9312,"lat":0.94431,"lon":-2.274757},{"name":"Port Alberni","code":8575,"lat":0.859278,"lon":-2.178415},{"name":"Alice Arm","code":9448,"lat":0.968134,"lon":-2.260132},{"name":"Port Blackney","code":9005,"lat":0.913017,"lon":-2.240148},{"name":"Shushartie Bay","code":8416,"lat":0.887605,"lon":-2.231561},{"name":"Dionisio Point","code":7535,"lat":0.855454,"lon":-2.156771},{"name":"Blind Bay","code":7865,"lat":0.867708,"lon":-2.167332},{"name":"Finlayson Arm","code":7284,"lat":0.846425,"lon":-2.156405},{"name":"Hope Bay","code":7360,"lat":0.85178,"lon":-2.15157},{"name":"Cape St James","code":9502,"lat":0.906489,"lon":-2.286643},{"name":"William Head","code":7082,"lat":0.84371,"lon":-2.156126},{"name":"Twin Is","code":7892,"lat":0.873188,"lon":-2.18044},{"name":"Kynumpt Hbr","code":8978,"lat":0.911201,"lon":-2.236849},{"name":"Orford Bay","code":8065,"lat":0.883101,"lon":-2.179295},{"name":"Sidney Bay","code":8162,"lat":0.881682,"lon":-2.191843},{"name":"Denman Is","code":7955,"lat":0.86454,"lon":-2.178536},{"name":"Cypress Bay","code":8630,"lat":0.859767,"lon":-2.196863},{"name":"Kumeon Bay","code":9414,"lat":0.954922,"lon":-2.273117},{"name":"Samuel Is","code":7515,"lat":0.852012,"lon":-2.150246},{"name":"Vancouver","code":7735,"lat":0.860208,"lon":-2.148495},{"name":"Masset","code":9910,"lat":0.942652,"lon":-2.306435},{"name":"Ganges","code":7407,"lat":0.852653,"lon":-2.155435},{"name":"Sullivan Bay","code":8364,"lat":0.888128,"lon":-2.213531},{"name":"Miners Bay","code":7528,"lat":0.852593,"lon":-2.151991},{"name":"Victoria Hbr","code":7120,"lat":0.84517,"lon":-2.153225},{"name":"Owen Bay","code":8120,"lat":0.878083,"lon":-2.185561},{"name":"McCoy Cove","code":9790,"lat":0.92574,"lon":-2.29797},{"name":"Channel Is","code":8015,"lat":0.878192,"lon":-2.177298},{"name":"Winter Hbr","code":8735,"lat":0.881618,"lon":-2.234528},{"name":"Prince Rupert","code":9354,"lat":0.94801,"lon":-2.274583},{"name":"Stopper Is","code":8588,"lat":0.855089,"lon":-2.1877},{"name":"Blubber Bay","code":7875,"lat":0.869174,"lon":-2.174971},{"name":"Gold River","code":8650,"lat":0.867062,"lon":-2.201314},{"name":"Port Hardy","code":8408,"lat":0.885266,"lon":-2.225103},{"name":"Surf Inlet","code":9090,"lat":0.925606,"lon":-2.249729},{"name":"Kwinitsa River","code":9285,"lat":0.946259,"lon":-2.261656},{"name":"Cordero Is","code":8150,"lat":0.880379,"lon":-2.190249},{"name":"Joassa Channel","code":8922,"lat":0.910922,"lon":-2.239415},{"name":"Becher Bay","code":7030,"lat":0.843603,"lon":-2.157293},{"name":"Armentiere Channel","code":9605,"lat":0.927032,"lon":-2.310624},{"name":"Sheringham Point","code":7013,"lat":0.844339,"lon":-2.162832},{"name":"Hunger Hbr","code":9570,"lat":0.92094,"lon":-2.304655},{"name":"Valdes Is","code":7542,"lat":0.856224,"lon":-2.157576},{"name":"Growler Cove","code":8270,"lat":0.881915,"lon":-2.209936},{"name":"Jennis Bay","code":8384,"lat":0.888599,"lon":-2.217022},{"name":"Glendale Cove","code":8310,"lat":0.884433,"lon":-2.194522},{"name":"Bamfield","code":8545,"lat":0.852349,"lon":-2.184035},{"name":"Pender Hbr","code":7837,"lat":0.866259,"lon":-2.164767},{"name":"Stuart Narrows","code":8379,"lat":0.88832,"lon":-2.214753},{"name":"Darrell Bay","code":7808,"lat":0.866888,"lon":-2.149705},{"name":"Haysport","code":9266,"lat":0.945584,"lon":-2.269085},{"name":"Bloedel, Menzies Bay, BC","code":8095,"lat":0.874724,"lon":-2.188311},{"name":"Esquimalt Hbr","code":7109,"lat":0.845445,"lon":-2.154606},{"name":"Treadwell Bay","code":8440,"lat":0.891916,"lon":-2.22601},{"name":"Chatham Pt","code":8180,"lat":0.878442,"lon":-2.189376},{"name":"Big Bay, Stuart Is","code":8060,"lat":0.879524,"lon":-2.184022},{"name":"Surge Narrows","code":8045,"lat":0.87663,"lon":-2.183616},{"name":"Alison Sound","code":8488,"lat":0.892928,"lon":-2.216254},{"name":"Wadhams","code":8840,"lat":0.899019,"lon":-2.225714},{"name":"Qlawdzeet Anchorage","code":9315,"lat":0.946108,"lon":-2.282332},{"name":"Hunt Islet","code":8736,"lat":0.880937,"lon":-2.234545},{"name":"Mutine Point","code":8556,"lat":0.854199,"lon":-2.181993},{"name":"Effingham Bay","code":8585,"lat":0.853082,"lon":-2.187124},{"name":"Port McNeill","code":8290,"lat":0.883014,"lon":-2.218209},{"name":"Cowichan Bay","code":7310,"lat":0.85068,"lon":-2.157548},{"name":"Boswell Inlet","code":8812,"lat":0.896611,"lon":-2.224754},{"name":"Gerald Point","code":8996,"lat":0.915216,"lon":-2.235488},{"name":"Ceepeecee","code":8664,"lat":0.870466,"lon":-2.211611},{"name":"Selkirk Water","code":7121,"lat":0.845425,"lon":-2.153378},{"name":"Siwash Bay","code":8311,"lat":0.884658,"lon":-2.194937},{"name":"Clover Point","code":7115,"lat":0.844806,"lon":-2.152839},{"name":"Atli Inlet","code":9765,"lat":0.920033,"lon":-2.296452},{"name":"Draney Inlet","code":8830,"lat":0.898426,"lon":-2.226185},{"name":"Claxton","code":9260,"lat":0.943857,"lon":-2.270481},{"name":"Coal Hbr","code":8765,"lat":0.883119,"lon":-2.226709},{"name":"Tofino","code":8615,"lat":0.857899,"lon":-2.197596},{"name":"Henslung Cove","code":9958,"lat":0.945811,"lon":-2.321323},{"name":"Preedy Hbr","code":7471,"lat":0.854866,"lon":-2.158583},{"name":"Halfmoon Bay","code":7830,"lat":0.86413,"lon":-2.162672},{"name":"Indian Arm Head","code":7774,"lat":0.863271,"lon":-2.144767},{"name":"Johnson Point","code":8470,"lat":0.892038,"lon":-2.225941},{"name":"Gordon Is","code":9512,"lat":0.909482,"lon":-2.288842},{"name":"Silva Bay","code":7550,"lat":0.857829,"lon":-2.158972},{"name":"Porpoise Channel E","code":9341,"lat":0.946233,"lon":-2.273973},{"name":"Calamity Point","code":7724,"lat":0.860667,"lon":-2.148983},{"name":"Cedar Is","code":8325,"lat":0.884126,"lon":-2.210896},{"name":"Gorge at Tillicum","code":7123,"lat":0.845573,"lon":-2.153799},{"name":"Hornby Is","code":7953,"lat":0.863872,"lon":-2.176007},{"name":"Port Moody","code":7755,"lat":0.860238,"lon":-2.144416},{"name":"Nesto Inlet","code":9667,"lat":0.934624,"lon":-2.319833},{"name":"Sulphur Passage","code":8634,"lat":0.862262,"lon":-2.200302},{"name":"Redonda Bay","code":8025,"lat":0.87722,"lon":-2.181574},{"name":"French Creek","code":7940,"lat":0.861313,"lon":-2.170471},{"name":"Morse Basin","code":9344,"lat":0.946986,"lon":-2.273075},{"name":"Kemano Bay","code":9150,"lat":0.933367,"lon":-2.236186},{"name":"Franklin River","code":8565,"lat":0.857096,"lon":-2.17838},{"name":"Kelsey Bay","code":8215,"lat":0.879611,"lon":-2.198434},{"name":"Egg Is","code":8805,"lat":0.894464,"lon":-2.231159},{"name":"Higgins Passage","code":9056,"lat":0.916001,"lon":-2.247321},{"name":"Roberts Creek","code":7824,"lat":0.862524,"lon":-2.15796},{"name":"Saltery Bay","code":7868,"lat":0.868883,"lon":-2.167408},{"name":"Woodward's Landing","code":7610,"lat":0.857395,"lon":-2.148071},{"name":"Sandy Cove","code":7786,"lat":0.861154,"lon":-2.150802},{"name":"Skerry Bay","code":7985,"lat":0.863938,"lon":-2.168345},{"name":"Humpback Bay","code":9309,"lat":0.943996,"lon":-2.275822},{"name":"Heater Hbr","code":9708,"lat":0.909607,"lon":-2.286963},{"name":"Seal Cove","code":9360,"lat":0.948257,"lon":-2.273808},{"name":"Sooke","code":7020,"lat":0.844207,"lon":-2.159426},{"name":"Bunsby Is","code":8720,"lat":0.874716,"lon":-2.225462},{"name":"Roberts Bank","code":7592,"lat":0.855473,"lon":-2.149478},{"name":"Georgina Point","code":7525,"lat":0.852986,"lon":-2.151857},{"name":"Crofton","code":7450,"lat":0.853022,"lon":-2.157986},{"name":"Gingolx","code":9422,"lat":0.959914,"lon":-2.268544},{"name":"Lax Kw'alaams","code":9390,"lat":0.952252,"lon":-2.27645},{"name":"Portage Inlet","code":7125,"lat":0.845736,"lon":-2.154026},{"name":"Hudson Bay Passage","code":9329,"lat":0.950454,"lon":-2.283728},{"name":"Yorke Is","code":8233,"lat":0.880414,"lon":-2.198731},{"name":"Block Is","code":9165,"lat":0.927765,"lon":-2.264408},{"name":"Campbell River","code":8074,"lat":0.873398,"lon":-2.185973},{"name":"Narvaez Bay","code":7345,"lat":0.851272,"lon":-2.148467},{"name":"Whaletown","code":8038,"lat":0.87455,"lon":-2.182569},{"name":"Kennedy Cove","code":8623,"lat":0.857655,"lon":-2.193373},{"name":"Herbert Inlet","code":8632,"lat":0.86125,"lon":-2.198836},{"name":"Blind Channel","code":8155,"lat":0.87989,"lon":-2.190423},{"name":"Seabreeze Point","code":9250,"lat":0.942251,"lon":-2.272105},{"name":"Carpenter Bay","code":9717,"lat":0.91176,"lon":-2.289104},{"name":"Refuge Bay","code":9306,"lat":0.943403,"lon":-2.27837},{"name":"Nanoose Bay","code":7930,"lat":0.859575,"lon":-2.167175},{"name":"Riley Cove","code":8637,"lat":0.862036,"lon":-2.203042},{"name":"Hartley Bay","code":9130,"lat":0.932428,"lon":-2.255871},{"name":"Saavedra Is","code":8645,"lat":0.866067,"lon":-2.209884},{"name":"Samuel Is","code":7370,"lat":0.852099,"lon":-2.150392},{"name":"Montague Hbr","code":7420,"lat":0.853339,"lon":-2.1536},{"name":"McPherson Pt","code":9963,"lat":0.946789,"lon":-2.320939},{"name":"Inverness","code":9340,"lat":0.945864,"lon":-2.272853},{"name":"Griffin Passage","code":9020,"lat":0.92101,"lon":-2.24006},{"name":"Mill Bay","code":9425,"lat":0.959826,"lon":-2.267026},{"name":"Port Clements","code":9920,"lat":0.93705,"lon":-2.307098},{"name":"Shields Bay","code":9650,"lat":0.930487,"lon":-2.311113},{"name":"Gibsons","code":7820,"lat":0.862228,"lon":-2.155569},{"name":"Spider Is","code":8912,"lat":0.904866,"lon":-2.238053},{"name":"McKenney Isl","code":9077,"lat":0.918916,"lon":-2.259713},{"name":"Boat Hbr","code":7480,"lat":0.856782,"lon":-2.160686},{"name":"Gillen Hbr","code":9105,"lat":0.924396,"lon":-2.262051},{"name":"Port Alice","code":8750,"lat":0.879367,"lon":-2.224509},{"name":"Beauchemin Channel","code":9082,"lat":0.921143,"lon":-2.256764},{"name":"Kwokwesta Creek","code":8755,"lat":0.881863,"lon":-2.226499},{"name":"Wiah Point","code":9940,"lat":0.944433,"lon":-2.309245},{"name":"Winchelsea Is","code":7935,"lat":0.860447,"lon":-2.165709},{"name":"Pedder Bay","code":7080,"lat":0.843547,"lon":-2.156356},{"name":"Trail Bay","code":9406,"lat":0.952653,"lon":-2.275159},{"name":"Rose Hbr","code":9713,"lat":0.91028,"lon":-2.287968},{"name":"Esperanza","code":8665,"lat":0.870431,"lon":-2.2121},{"name":"White Rock","code":7577,"lat":0.855502,"lon":-2.143264},{"name":"Nugent Sound","code":8464,"lat":0.891572,"lon":-2.220931},{"name":"Stryker Is","code":8917,"lat":0.909194,"lon":-2.240095},{"name":"Griffith Hbr","code":9230,"lat":0.935479,"lon":-2.278405},{"name":"Houston Stewart Channel W","code":9511,"lat":0.909026,"lon":-2.288418},{"name":"Florence Cove","code":8055,"lat":0.878128,"lon":-2.184541},{"name":"Brooksby Point","code":8558,"lat":0.854897,"lon":-2.1814},{"name":"Kingcome Inlet","code":8348,"lat":0.888525,"lon":-2.202596},{"name":"Trounce Inlet N","code":9627,"lat":0.927788,"lon":-2.309467},{"name":"Bella Bella","code":8976,"lat":0.910416,"lon":-2.236517},{"name":"Kitsilano","code":7707,"lat":0.860041,"lon":-2.149185},{"name":"Kyuquot","code":8710,"lat":0.873118,"lon":-2.223131},{"name":"Nanaimo Hbr","code":7917,"lat":0.858053,"lon":-2.162873}]